$GPGGA,021618.999,3704.6806,N,12650.0171,E,1,04,7.8,0.0,M,21.4,M,,0000*5A
$GPGSA,A,3,02,06,12,17,,,,,,,,,15.5,7.8,13.4*3B
$GPGSV,2,1,07,06,67,035,33,02,53,315,34,17,37,155,26,05,33,245,*79
$GPGSV,2,2,07,12,23,278,32,25,09,314,,23,00,000,32*48
$GPRMC,021618.999,A,3704.6806,N,12650.0171,E,000.0,041.2,161116,,,A*63
$GPVTG,041.2,T,,M,000.0,N,000.0,K,A*0A
$GPGGA,021619.999,3704.6795,N,12650.0150,E,1,05,1.2,0.0,M,21.4,M,,0000*50
$GPGSA,A,3,02,06,12,17,23,,,,,,,,2.3,1.2,2.0*32
$GPGSV,2,1,07,06,67,035,32,02,53,315,34,17,37,155,26,05,33,245,*78
$GPGSV,2,2,07,12,23,278,32,23,19,045,31,25,09,314,*42
$GPRMC,021619.999,A,3704.6795,N,12650.0150,E,000.0,041.2,161116,,,A*64
$GPVTG,041.2,T,,M,000.0,N,000.0,K,A*0A
$GPGGA,021620.999,3704.6785,N,12650.0133,E,1,05,1.2,0.0,M,21.4,M,,0000*5E
$GPGSA,A,3,02,06,12,17,23,,,,,,,,2.3,1.2,2.0*32
$GPGSV,2,1,07,06,67,035,33,02,53,315,34,17,37,155,25,05,33,245,*7A
$GPGSV,2,2,07,12,23,278,32,23,19,045,31,25,09,314,*42
$GPRMC,021620.999,A,3704.6785,N,12650.0133,E,000.0,041.2,161116,,,A*6A
$GPVTG,041.2,T,,M,000.0,N,000.0,K,A*0A
$GPGGA,021621.999,3704.6777,N,12650.0119,E,1,05,1.2,0.0,M,21.4,M,,0000*5A
$GPGSA,A,3,02,06,12,17,23,,,,,,,,2.3,1.2,2.0*32
$GPGSV,2,1,07,06,67,035,32,02,53,315,34,17,37,155,25,05,33,245,*7B
$GPGSV,2,2,07,12,23,278,32,23,19,045,31,25,09,314,*42
$GPRMC,021621.999,A,3704.6777,N,12650.0119,E,000.0,041.2,161116,,,A*6E
$GPVTG,041.2,T,,M,000.0,N,000.0,K,A*0A
$GPGGA,021622.999,3704.6767,N,12650.0105,E,1,05,1.2,0.0,M,21.4,M,,0000*55
$GPGSA,A,3,02,06,12,17,23,,,,,,,,2.3,1.2,2.0*32
$GPGSV,2,1,07,06,67,035,33,02,53,315,34,17,37,155,25,05,33,245,*7A
$GPGSV,2,2,07,12,23,278,32,23,19,045,31,25,09,314,*42
$GPRMC,021622.999,A,3704.6767,N,12650.0105,E,000.0,041.2,161116,,,A*61
$GPVTG,041.2,T,,M,000.0,N,000.0,K,A*0A
$GPGGA,021623.999,3704.6758,N,12650.0092,E,1,05,1.2,0.0,M,21.4,M,,0000*57
$GPGSA,A,3,02,06,12,17,23,,,,,,,,2.3,1.2,2.0*32
$GPGSV,2,1,07,06,67,035,33,02,53,315,34,17,37,155,25,05,33,245,*7A
$GPGSV,2,2,07,12,23,278,33,23,19,045,31,25,09,314,*43
$GPRMC,021623.999,A,3704.6758,N,12650.0092,E,000.0,041.2,161116,,,A*63
$GPVTG,041.2,T,,M,000.0,N,000.0,K,A*0A
$GPGGA,021624.999,3704.6750,N,12650.0081,E,1,05,1.2,0.0,M,21.4,M,,0000*5A
$GPGSA,A,3,02,06,12,17,23,,,,,,,,2.3,1.2,2.0*32
$GPGSV,2,1,07,06,67,035,33,02,53,315,34,17,37,155,25,05,33,245,*7A
$GPGSV,2,2,07,12,23,278,33,23,19,045,31,25,09,314,*43
$GPRMC,021624.999,A,3704.6750,N,12650.0081,E,000.0,041.2,161116,,,A*6E
$GPVTG,041.2,T,,M,000.0,N,000.0,K,A*0A
$GPGGA,021625.999,3704.6742,N,12650.0071,E,1,05,1.2,0.0,M,21.4,M,,0000*57
$GPGSA,A,3,02,06,12,17,23,,,,,,,,2.3,1.2,2.0*32
$GPGSV,2,1,07,06,67,035,33,02,53,315,34,17,37,155,24,05,33,245,*7B
$GPGSV,2,2,07,12,23,278,33,23,19,045,31,25,09,314,*43
$GPRMC,021625.999,A,3704.6742,N,12650.0071,E,000.0,041.2,161116,,,A*63
$GPVTG,041.2,T,,M,000.0,N,000.0,K,A*0A
$GPGGA,021626.999,3704.6732,N,12650.0062,E,1,05,1.2,0.0,M,21.4,M,,0000*51
$GPGSA,A,3,02,06,12,17,23,,,,,,,,2.3,1.2,2.0*32
$GPGSV,2,1,07,06,67,036,33,02,53,315,34,17,37,155,27,05,33,245,*7B
$GPGSV,2,2,07,12,23,278,33,23,19,045,31,25,09,314,*43
$GPRMC,021626.999,A,3704.6732,N,12650.0062,E,000.0,041.2,161116,,,A*65
$GPVTG,041.2,T,,M,000.0,N,000.0,K,A*0A
$GPGGA,021627.999,3704.6723,N,12650.0054,E,1,05,1.2,0.0,M,21.4,M,,0000*55
$GPGSA,A,3,02,06,12,17,23,,,,,,,,2.3,1.2,2.0*32
$GPGSV,2,1,07,06,67,036,33,02,53,315,34,17,37,155,27,05,33,245,*7B
$GPGSV,2,2,07,12,23,278,34,23,19,045,31,25,09,314,*44
$GPRMC,021627.999,A,3704.6723,N,12650.0054,E,000.0,041.2,161116,,,A*61
$GPVTG,041.2,T,,M,000.0,N,000.0,K,A*0A
$GPGGA,021628.999,3704.6716,N,12650.0046,E,1,05,1.2,0.0,M,21.4,M,,0000*5F
$GPGSA,A,3,02,06,12,17,23,,,,,,,,2.3,1.2,2.0*32
$GPGSV,2,1,07,06,67,036,33,02,53,315,35,17,37,155,25,05,33,245,*78
$GPGSV,2,2,07,12,23,278,34,23,19,045,31,25,09,314,*44
$GPRMC,021628.999,A,3704.6716,N,12650.0046,E,000.0,041.2,161116,,,A*6B
$GPVTG,041.2,T,,M,000.0,N,000.0,K,A*0A
$GPGGA,021629.999,3704.6711,N,12650.0040,E,1,05,1.2,0.0,M,21.4,M,,0000*5F
$GPGSA,A,3,02,06,12,17,23,,,,,,,,2.3,1.2,2.0*32
$GPGSV,2,1,07,06,67,036,33,02,53,315,35,17,37,155,24,05,33,245,*79
$GPGSV,2,2,07,12,23,278,34,23,19,045,30,25,09,314,*45
$GPRMC,021629.999,A,3704.6711,N,12650.0040,E,000.0,041.2,161116,,,A*6B
$GPVTG,041.2,T,,M,000.0,N,000.0,K,A*0A
$GPGGA,021630.999,3704.6705,N,12650.0034,E,1,05,1.2,0.0,M,21.4,M,,0000*51
$GPGSA,A,3,02,06,12,17,23,,,,,,,,2.3,1.2,2.0*32
$GPGSV,2,1,07,06,67,036,33,02,53,315,35,17,37,155,24,05,33,245,*79
$GPGSV,2,2,07,12,23,278,34,23,19,045,31,25,09,314,*44
$GPRMC,021630.999,A,3704.6705,N,12650.0034,E,000.0,041.2,161116,,,A*65
$GPVTG,041.2,T,,M,000.0,N,000.0,K,A*0A
$GPGGA,021631.999,3704.6704,N,12650.0034,E,1,05,1.2,0.0,M,21.4,M,,0000*51
$GPGSA,A,3,02,06,12,17,23,,,,,,,,2.3,1.2,2.0*32
$GPGSV,2,1,07,06,67,036,34,02,53,315,35,17,37,155,26,05,33,245,*7C
$GPGSV,2,2,07,12,23,278,35,23,19,045,30,25,09,314,*44
$GPRMC,021631.999,A,3704.6704,N,12650.0034,E,000.0,041.2,161116,,,A*65
$GPVTG,041.2,T,,M,000.0,N,000.0,K,A*0A
$GPGGA,021632.999,3704.6703,N,12650.0034,E,1,05,1.2,0.0,M,21.4,M,,0000*55
$GPGSA,A,3,02,06,12,17,23,,,,,,,,2.3,1.2,2.0*32
$GPGSV,2,1,07,06,67,036,34,02,53,315,35,17,37,155,25,05,33,245,*7F
$GPGSV,2,2,07,12,23,278,35,23,19,045,30,25,09,314,*44
$GPRMC,021632.999,A,3704.6703,N,12650.0034,E,000.0,041.2,161116,,,A*61
$GPVTG,041.2,T,,M,000.0,N,000.0,K,A*0A
$GPGGA,021633.999,3704.6702,N,12650.0034,E,1,05,1.2,0.0,M,21.4,M,,0000*55
$GPGSA,A,3,02,06,12,17,23,,,,,,,,2.3,1.2,2.0*32
$GPGSV,2,1,07,06,67,036,34,02,53,315,35,17,37,155,27,05,33,245,*7D
$GPGSV,2,2,07,12,23,278,35,23,19,045,29,25,09,314,*4C
$GPRMC,021633.999,A,3704.6702,N,12650.0034,E,000.0,041.2,161116,,,A*61
$GPVTG,041.2,T,,M,000.0,N,000.0,K,A*0A
$GPGGA,021634.999,3704.6695,N,12650.0033,E,1,05,1.2,0.0,M,21.4,M,,0000*5A
$GPGSA,A,3,02,06,12,17,23,,,,,,,,2.3,1.2,2.0*32
$GPGSV,2,1,07,06,67,036,32,02,53,315,34,17,37,155,29,05,33,245,*74
$GPGSV,2,2,07,12,23,278,36,23,19,045,28,25,09,314,*4E
$GPRMC,021634.999,A,3704.6695,N,12650.0033,E,000.0,041.2,161116,,,A*6E
$GPVTG,041.2,T,,M,000.0,N,000.0,K,A*0A
$GPGGA,021635.999,3704.6689,N,12650.0028,E,1,05,1.2,0.0,M,21.4,M,,0000*5C
$GPGSA,A,3,02,06,12,17,23,,,,,,,,2.3,1.2,2.0*32
$GPGSV,2,1,07,06,67,036,32,02,53,315,36,17,37,155,27,05,33,245,*78
$GPGSV,2,2,07,12,23,278,35,23,19,045,29,25,09,314,*4C
$GPRMC,021635.999,A,3704.6689,N,12650.0028,E,000.0,041.2,161116,,,A*68
$GPVTG,041.2,T,,M,000.0,N,000.0,K,A*0A
$GPGGA,021636.999,3704.6684,N,12650.0019,E,1,05,1.2,0.0,M,21.4,M,,0000*50
$GPGSA,A,3,02,06,12,17,23,,,,,,,,2.3,1.2,2.0*32
$GPGSV,2,1,07,06,67,036,33,02,53,315,35,17,37,155,25,05,33,245,*78
$GPGSV,2,2,07,12,23,278,35,23,19,045,32,25,09,314,*46
$GPRMC,021636.999,A,3704.6684,N,12650.0019,E,000.0,041.2,161116,,,A*64
$GPVTG,041.2,T,,M,000.0,N,000.0,K,A*0A
$GPGGA,021637.999,3704.6683,N,12650.0018,E,1,05,1.2,0.0,M,21.4,M,,0000*57
$GPGSA,A,3,02,06,12,17,23,,,,,,,,2.3,1.2,2.0*32
$GPGSV,2,1,07,06,67,036,34,02,53,315,35,17,37,155,25,05,33,245,*7F
$GPGSV,2,2,07,12,23,278,34,23,19,045,31,25,09,314,*44
$GPRMC,021637.999,A,3704.6683,N,12650.0018,E,000.0,041.2,161116,,,A*63
$GPVTG,041.2,T,,M,000.0,N,000.0,K,A*0A
$GPGGA,021638.999,3704.6682,N,12650.0017,E,1,05,1.2,0.0,M,21.4,M,,0000*56
$GPGSA,A,3,02,06,12,17,23,,,,,,,,2.3,1.2,2.0*32
$GPGSV,2,1,07,06,67,036,34,02,53,315,34,17,37,155,24,05,33,245,*7F
$GPGSV,2,2,07,12,23,278,34,23,19,045,32,25,09,314,*47
$GPRMC,021638.999,A,3704.6682,N,12650.0017,E,000.0,041.2,161116,,,A*62
$GPVTG,041.2,T,,M,000.0,N,000.0,K,A*0A
$GPGGA,021639.999,3704.6678,N,12650.0009,E,1,05,1.2,0.0,M,21.4,M,,0000*5D
$GPGSA,A,3,02,06,12,17,23,,,,,,,,2.3,1.2,2.0*32
$GPGSV,2,1,07,06,67,036,33,02,53,315,34,17,37,155,23,05,33,245,*7F
$GPGSV,2,2,07,12,23,278,34,23,19,045,32,25,09,314,*47
$GPRMC,021639.999,A,3704.6678,N,12650.0009,E,000.0,041.2,161116,,,A*69
$GPVTG,041.2,T,,M,000.0,N,000.0,K,A*0A
$GPGGA,021640.999,3704.6675,N,12650.0004,E,1,05,1.2,0.0,M,21.4,M,,0000*53
$GPGSA,A,3,02,06,12,17,23,,,,,,,,2.3,1.2,2.0*32
$GPGSV,2,1,07,06,67,036,33,02,53,315,34,17,37,155,23,05,33,245,*7F
$GPGSV,2,2,07,12,23,278,34,23,19,045,32,25,09,314,*47
$GPRMC,021640.999,A,3704.6675,N,12650.0004,E,000.0,041.2,161116,,,A*67
$GPVTG,041.2,T,,M,000.0,N,000.0,K,A*0A
$GPGGA,021641.999,3704.6670,N,12650.0000,E,1,05,1.2,0.0,M,21.4,M,,0000*53
$GPGSA,A,3,02,06,12,17,23,,,,,,,,2.3,1.2,2.0*32
$GPGSV,2,1,07,06,67,036,33,02,53,315,33,17,37,155,24,05,33,245,*7F
$GPGSV,2,2,07,12,23,278,34,23,19,045,30,25,09,314,*45
$GPRMC,021641.999,A,3704.6670,N,12650.0000,E,000.0,041.2,161116,,,A*67
$GPVTG,041.2,T,,M,000.0,N,000.0,K,A*0A
$GPGGA,021642.999,3704.6663,N,12649.9994,E,1,05,1.2,0.0,M,21.4,M,,0000*57
$GPGSA,A,3,02,06,12,17,23,,,,,,,,2.3,1.2,2.0*32
$GPGSV,2,1,07,06,67,036,33,02,53,315,33,17,37,155,27,05,33,245,*7C
$GPGSV,2,2,07,12,23,278,35,23,19,045,31,25,09,314,*45
$GPRMC,021642.999,A,3704.6663,N,12649.9994,E,000.0,041.2,161116,,,A*63
$GPVTG,041.2,T,,M,000.0,N,000.0,K,A*0A
$GPGGA,021643.999,3704.6659,N,12649.9989,E,1,05,1.2,0.0,M,21.4,M,,0000*53
$GPGSA,A,3,02,06,12,17,23,,,,,,,,2.3,1.2,2.0*32
$GPGSV,2,1,07,06,67,036,33,02,53,315,33,17,37,155,25,05,33,245,*7E
$GPGSV,2,2,07,12,23,278,34,23,19,045,31,25,09,314,*44
$GPRMC,021643.999,A,3704.6659,N,12649.9989,E,000.0,041.2,161116,,,A*67
$GPVTG,041.2,T,,M,000.0,N,000.0,K,A*0A
$GPGGA,021644.999,3704.6656,N,12649.9983,E,1,04,5.0,0.0,M,21.4,M,,0000*56
$GPGSA,A,3,02,06,12,23,,,,,,,,,5.4,5.0,2.1*33
$GPGSV,2,1,07,06,67,036,33,02,53,315,33,17,37,155,24,05,33,245,*7F
$GPGSV,2,2,07,12,23,278,35,23,19,045,31,25,09,314,*45
$GPRMC,021644.999,A,3704.6656,N,12649.9983,E,000.0,041.2,161116,,,A*65
$GPVTG,041.2,T,,M,000.0,N,000.0,K,A*0A
$GPGGA,021645.999,3704.6652,N,12649.9978,E,1,05,1.2,0.0,M,21.4,M,,0000*50
$GPGSA,A,3,02,06,12,17,23,,,,,,,,2.3,1.2,2.0*32
$GPGSV,2,1,07,06,67,036,33,02,53,315,33,17,37,155,24,05,33,245,*7F
$GPGSV,2,2,07,12,23,278,34,23,19,045,31,25,09,314,*44
$GPRMC,021645.999,A,3704.6652,N,12649.9978,E,000.0,041.2,161116,,,A*64
$GPVTG,041.2,T,,M,000.0,N,000.0,K,A*0A
$GPGGA,021646.999,3704.6648,N,12649.9973,E,1,05,1.2,0.0,M,21.4,M,,0000*53
$GPGSA,A,3,02,06,12,17,23,,,,,,,,2.3,1.2,2.0*32
$GPGSV,2,1,07,06,67,036,33,02,53,315,33,17,37,155,23,05,33,245,*78
$GPGSV,2,2,07,12,23,278,34,23,19,045,31,25,09,314,*44
$GPRMC,021646.999,A,3704.6648,N,12649.9973,E,000.0,041.2,161116,,,A*67
$GPVTG,041.2,T,,M,000.0,N,000.0,K,A*0A
$GPGGA,021647.999,3704.6642,N,12649.9968,E,1,05,1.2,0.0,M,21.4,M,,0000*52
$GPGSA,A,3,02,06,12,17,23,,,,,,,,2.3,1.2,2.0*32
$GPGSV,2,1,07,06,67,036,33,02,53,315,33,17,37,155,23,05,33,245,*78
$GPGSV,2,2,07,12,23,278,34,23,19,045,31,25,09,314,*44
$GPRMC,021647.999,A,3704.6642,N,12649.9968,E,000.0,041.2,161116,,,A*66
$GPVTG,041.2,T,,M,000.0,N,000.0,K,A*0A
$GPGGA,021648.999,3704.6639,N,12649.9965,E,1,05,1.2,0.0,M,21.4,M,,0000*5C
$GPGSA,A,3,02,06,12,17,23,,,,,,,,2.3,1.2,2.0*32
$GPGSV,2,1,07,06,67,036,32,02,53,315,32,17,37,155,23,05,33,245,*78
$GPGSV,2,2,07,12,23,278,34,23,19,045,30,25,09,314,*45
$GPRMC,021648.999,A,3704.6639,N,12649.9965,E,000.0,041.2,161116,,,A*68
$GPVTG,041.2,T,,M,000.0,N,000.0,K,A*0A
$GPGGA,021649.999,3704.6634,N,12649.9960,E,1,05,1.2,0.0,M,21.4,M,,0000*55
$GPGSA,A,3,02,06,12,17,23,,,,,,,,2.3,1.2,2.0*32
$GPGSV,2,1,07,06,67,036,32,02,53,315,32,17,37,155,22,05,33,245,*79
$GPGSV,2,2,07,12,23,278,34,23,19,045,31,25,09,314,*44
$GPRMC,021649.999,A,3704.6634,N,12649.9960,E,000.0,041.2,161116,,,A*61
$GPVTG,041.2,T,,M,000.0,N,000.0,K,A*0A
$GPGGA,021650.999,3704.6631,N,12649.9955,E,1,05,1.2,0.0,M,21.4,M,,0000*5E
$GPGSA,A,3,02,06,12,17,23,,,,,,,,2.3,1.2,2.0*32
$GPGSV,2,1,07,06,67,036,32,02,53,315,32,17,37,155,20,05,33,245,*7B
$GPGSV,2,2,07,12,23,278,34,23,19,045,32,25,09,314,*47
$GPRMC,021650.999,A,3704.6631,N,12649.9955,E,000.0,041.2,161116,,,A*6A
$GPVTG,041.2,T,,M,000.0,N,000.0,K,A*0A
$GPGGA,021651.999,3704.6629,N,12649.9950,E,1,05,1.2,0.0,M,21.4,M,,0000*53
$GPGSA,A,3,02,06,12,17,23,,,,,,,,2.3,1.2,2.0*32
$GPGSV,2,1,07,06,67,036,32,02,53,315,32,17,37,155,19,05,33,245,*71
$GPGSV,2,2,07,12,23,278,34,23,19,045,32,25,09,314,*47
$GPRMC,021651.999,A,3704.6629,N,12649.9950,E,000.0,041.2,161116,,,A*67
$GPVTG,041.2,T,,M,000.0,N,000.0,K,A*0A
$GPGGA,021652.999,3704.6627,N,12649.9945,E,1,04,5.0,0.0,M,21.4,M,,0000*5D
$GPGSA,A,3,02,06,12,23,,,,,,,,,5.4,5.0,2.1*33
$GPGSV,2,1,07,06,67,036,32,02,53,315,32,17,37,155,17,05,33,245,*7F
$GPGSV,2,2,07,12,23,278,34,23,19,045,32,25,09,314,*47
$GPRMC,021652.999,A,3704.6627,N,12649.9945,E,000.0,041.2,161116,,,A*6E
$GPVTG,041.2,T,,M,000.0,N,000.0,K,A*0A
$GPGGA,021653.999,3704.6626,N,12649.9941,E,1,05,1.2,0.0,M,21.4,M,,0000*5E
$GPGSA,A,3,02,06,12,17,23,,,,,,,,2.3,1.2,2.0*32
$GPGSV,2,1,07,06,67,036,31,02,53,315,32,17,37,155,17,05,33,245,*7C
$GPGSV,2,2,07,12,23,278,34,23,19,045,31,25,09,314,*44
$GPRMC,021653.999,A,3704.6626,N,12649.9941,E,000.0,041.2,161116,,,A*6A
$GPVTG,041.2,T,,M,000.0,N,000.0,K,A*0A
$GPGGA,021654.999,3704.6624,N,12649.9940,E,1,05,1.2,0.0,M,21.4,M,,0000*5A
$GPGSA,A,3,02,06,12,17,23,,,,,,,,2.3,1.2,2.0*32
$GPGSV,2,1,07,06,67,036,31,02,53,315,31,17,37,155,17,05,33,245,*7F
$GPGSV,2,2,07,12,23,278,34,23,19,045,31,25,09,314,*44
$GPRMC,021654.999,A,3704.6624,N,12649.9940,E,000.0,041.2,161116,,,A*6E
$GPVTG,041.2,T,,M,000.0,N,000.0,K,A*0A
$GPGGA,021655.999,3704.6621,N,12649.9938,E,1,05,1.2,0.0,M,21.4,M,,0000*51
$GPGSA,A,3,02,06,12,17,23,,,,,,,,2.3,1.2,2.0*32
$GPGSV,2,1,07,06,67,036,31,02,53,315,31,17,37,155,17,05,33,245,*7F
$GPGSV,2,2,07,12,23,278,34,23,19,045,31,25,09,314,*44
$GPRMC,021655.999,A,3704.6621,N,12649.9938,E,000.0,041.2,161116,,,A*65
$GPVTG,041.2,T,,M,000.0,N,000.0,K,A*0A
$GPGGA,021656.999,3704.6619,N,12649.9936,E,1,05,1.2,0.1,M,21.4,M,,0000*56
$GPGSA,A,3,02,06,12,17,23,,,,,,,,2.3,1.2,2.0*32
$GPGSV,2,1,07,06,67,036,31,02,53,315,31,17,37,155,17,05,33,245,*7F
$GPGSV,2,2,07,12,23,278,35,23,19,045,31,25,09,314,*45
$GPRMC,021656.999,A,3704.6619,N,12649.9936,E,000.0,041.2,161116,,,A*63
$GPVTG,041.2,T,,M,000.0,N,000.0,K,A*0A
$GPGGA,021657.999,3704.6618,N,12649.9934,E,1,05,1.2,0.9,M,21.4,M,,0000*5C
$GPGSA,A,3,02,06,12,17,23,,,,,,,,2.3,1.2,2.0*32
$GPGSV,2,1,07,06,67,036,31,02,53,315,31,17,37,155,18,05,33,245,*70
$GPGSV,2,2,07,12,23,278,34,23,19,045,30,25,09,314,*45
$GPRMC,021657.999,A,3704.6618,N,12649.9934,E,000.0,041.2,161116,,,A*61
$GPVTG,041.2,T,,M,000.0,N,000.0,K,A*0A
$GPGGA,021658.999,3704.6616,N,12649.9931,E,1,05,1.2,1.9,M,21.4,M,,0000*59
$GPGSA,A,3,02,06,12,17,23,,,,,,,,2.3,1.2,2.0*32
$GPGSV,2,1,07,06,67,036,32,02,53,315,31,17,37,155,18,05,33,245,*73
$GPGSV,2,2,07,12,23,278,34,23,19,045,31,25,09,314,*44
$GPRMC,021658.999,A,3704.6616,N,12649.9931,E,000.0,041.2,161116,,,A*65
$GPVTG,041.2,T,,M,000.0,N,000.0,K,A*0A
$GPGGA,021659.999,3704.6614,N,12649.9928,E,1,05,1.2,2.6,M,21.4,M,,0000*5E
$GPGSA,A,3,02,06,12,17,23,,,,,,,,2.3,1.2,2.0*32
$GPGSV,2,1,07,06,67,036,32,02,53,315,30,17,37,155,20,05,33,245,*79
$GPGSV,2,2,07,12,23,278,34,23,19,045,31,25,09,314,*44
$GPRMC,021659.999,A,3704.6614,N,12649.9928,E,000.0,041.2,161116,,,A*6E
$GPVTG,041.2,T,,M,000.0,N,000.0,K,A*0A
$GPGGA,021700.999,3704.6612,N,12649.9926,E,1,05,1.2,3.3,M,21.4,M,,0000*5F
$GPGSA,A,3,02,06,12,17,23,,,,,,,,2.3,1.2,2.0*32
$GPGSV,2,1,07,06,67,036,32,02,53,315,30,17,37,155,20,05,33,245,*79
$GPGSV,2,2,07,12,23,278,34,23,19,045,30,25,09,314,*45
$GPRMC,021700.999,A,3704.6612,N,12649.9926,E,000.0,041.2,161116,,,A*6B
$GPVTG,041.2,T,,M,000.0,N,000.0,K,A*0A
$GPGGA,021701.999,3704.6609,N,12649.9925,E,1,05,1.2,3.9,M,21.4,M,,0000*5D
$GPGSA,A,3,02,06,12,17,23,,,,,,,,2.3,1.2,2.0*32
$GPGSV,2,1,07,06,67,036,33,02,53,315,30,17,37,155,19,05,33,245,*72
$GPGSV,2,2,07,12,23,278,34,23,19,045,30,25,09,314,*45
$GPRMC,021701.999,A,3704.6609,N,12649.9925,E,000.0,041.2,161116,,,A*63
$GPVTG,041.2,T,,M,000.0,N,000.0,K,A*0A
$GPGGA,021702.999,3704.6605,N,12649.9924,E,1,05,1.2,4.5,M,21.4,M,,0000*58
$GPGSA,A,3,02,06,12,17,23,,,,,,,,2.3,1.2,2.0*32
$GPGSV,2,1,07,06,67,036,33,02,53,315,30,17,37,155,21,05,33,245,*79
$GPGSV,2,2,07,12,23,278,33,23,19,045,29,25,09,314,*4A
$GPRMC,021702.999,A,3704.6605,N,12649.9924,E,000.0,041.2,161116,,,A*6D
$GPVTG,041.2,T,,M,000.0,N,000.0,K,A*0A
$GPGGA,021703.999,3704.6603,N,12649.9922,E,1,05,1.2,5.1,M,21.4,M,,0000*5C
$GPGSA,A,3,02,06,12,17,23,,,,,,,,2.3,1.2,2.0*32
$GPGSV,2,1,07,06,67,036,32,02,53,315,30,17,37,155,21,05,33,245,*78
$GPGSV,2,2,07,12,23,278,33,23,19,045,29,25,09,314,*4A
$GPRMC,021703.999,A,3704.6603,N,12649.9922,E,000.0,041.2,161116,,,A*6C
$GPVTG,041.2,T,,M,000.0,N,000.0,K,A*0A
$GPGGA,021704.999,3704.6601,N,12649.9919,E,1,05,1.2,5.6,M,21.4,M,,0000*56
$GPGSA,A,3,02,06,12,17,23,,,,,,,,2.3,1.2,2.0*32
$GPGSV,2,1,07,06,67,036,32,02,53,315,30,17,37,155,21,05,33,245,*78
$GPGSV,2,2,07,12,23,278,33,23,19,045,29,25,09,314,*4A
$GPRMC,021704.999,A,3704.6601,N,12649.9919,E,000.0,041.2,161116,,,A*61
$GPVTG,041.2,T,,M,000.0,N,000.0,K,A*0A
$GPGGA,021705.999,3704.6599,N,12649.9918,E,1,05,1.2,5.9,M,21.4,M,,0000*5B
$GPGSA,A,3,02,06,12,17,23,,,,,,,,2.3,1.2,2.0*32
$GPGSV,2,1,07,06,67,036,32,02,53,315,29,17,37,155,21,05,33,245,*70
$GPGSV,2,2,07,12,23,278,33,23,19,045,28,25,09,314,*4B
$GPRMC,021705.999,A,3704.6599,N,12649.9918,E,000.0,041.2,161116,,,A*63
$GPVTG,041.2,T,,M,000.0,N,000.0,K,A*0A
$GPGGA,021706.999,3704.6599,N,12649.9916,E,1,05,1.2,6.3,M,21.4,M,,0000*5F
$GPGSA,A,3,02,06,12,17,23,,,,,,,,2.3,1.2,2.0*32
$GPGSV,2,1,07,06,67,036,32,02,53,315,30,17,37,155,20,05,33,245,*79
$GPGSV,2,2,07,12,23,278,32,23,19,045,28,25,09,314,*4A
$GPRMC,021706.999,A,3704.6599,N,12649.9916,E,000.0,041.2,161116,,,A*6E
$GPVTG,041.2,T,,M,000.0,N,000.0,K,A*0A
$GPGGA,021707.999,3704.6598,N,12649.9915,E,1,05,1.2,6.7,M,21.4,M,,0000*58
$GPGSA,A,3,02,06,12,17,23,,,,,,,,2.3,1.2,2.0*32
$GPGSV,2,1,07,06,67,036,32,02,53,315,30,17,37,155,20,05,33,245,*79
$GPGSV,2,2,07,12,23,278,32,23,19,045,28,25,09,314,*4A
$GPRMC,021707.999,A,3704.6598,N,12649.9915,E,000.0,041.2,161116,,,A*6D
$GPVTG,041.2,T,,M,000.0,N,000.0,K,A*0A
$GPGGA,021708.999,3704.6597,N,12649.9914,E,1,05,1.2,7.0,M,21.4,M,,0000*5F
$GPGSA,A,3,02,06,12,17,23,,,,,,,,2.3,1.2,2.0*32
$GPGSV,2,1,07,06,67,036,32,02,53,315,29,17,37,155,20,05,33,245,*71
$GPGSV,2,2,07,12,23,278,31,23,19,045,27,25,09,314,*46
$GPRMC,021708.999,A,3704.6597,N,12649.9914,E,000.0,041.2,161116,,,A*6C
$GPVTG,041.2,T,,M,000.0,N,000.0,K,A*0A
$GPGGA,021709.999,3704.6596,N,12649.9914,E,1,05,1.2,7.3,M,21.4,M,,0000*5C
$GPGSA,A,3,02,06,12,17,23,,,,,,,,2.3,1.2,2.0*32
$GPGSV,2,1,07,06,67,036,31,02,53,315,28,17,37,155,20,05,33,245,*73
$GPGSV,2,2,07,12,23,278,31,23,19,045,26,25,09,314,*47
$GPRMC,021709.999,A,3704.6596,N,12649.9914,E,000.0,041.2,161116,,,A*6C
$GPVTG,041.2,T,,M,000.0,N,000.0,K,A*0A
$GPGGA,021710.999,3704.6594,N,12649.9913,E,1,05,1.2,7.7,M,21.4,M,,0000*55
$GPGSA,A,3,02,06,12,17,23,,,,,,,,2.3,1.2,2.0*32
$GPGSV,2,1,07,06,67,036,31,02,53,315,27,17,37,155,20,05,33,245,*7C
$GPGSV,2,2,07,12,23,278,31,23,19,045,26,25,09,314,*47
$GPRMC,021710.999,A,3704.6594,N,12649.9913,E,000.0,041.2,161116,,,A*61
$GPVTG,041.2,T,,M,000.0,N,000.0,K,A*0A
$GPGGA,021711.999,3704.6592,N,12649.9912,E,1,05,1.2,8.1,M,21.4,M,,0000*5A
$GPGSA,A,3,02,06,12,17,23,,,,,,,,2.3,1.2,2.0*32
$GPGSV,2,1,07,06,67,036,31,02,53,315,28,17,37,155,21,05,34,245,*75
$GPGSV,2,2,07,12,23,278,31,23,19,045,26,25,09,314,*47
$GPRMC,021711.999,A,3704.6592,N,12649.9912,E,000.0,041.2,161116,,,A*67
$GPVTG,041.2,T,,M,000.0,N,000.0,K,A*0A
$GPGGA,021712.999,3704.6590,N,12649.9912,E,1,05,1.2,8.6,M,21.4,M,,0000*5C
$GPGSA,A,3,02,06,12,17,23,,,,,,,,2.3,1.2,2.0*32
$GPGSV,2,1,07,06,67,037,30,02,53,315,27,17,37,155,21,05,34,245,*7A
$GPGSV,2,2,07,12,23,278,31,23,19,045,26,25,09,314,*47
$GPRMC,021712.999,A,3704.6590,N,12649.9912,E,000.0,041.2,161116,,,A*66
$GPVTG,041.2,T,,M,000.0,N,000.0,K,A*0A
$GPGGA,021713.999,3704.6589,N,12649.9912,E,1,05,1.2,9.0,M,21.4,M,,0000*52
$GPGSA,A,3,02,06,12,17,23,,,,,,,,2.3,1.2,2.0*32
$GPGSV,2,1,07,06,67,037,29,02,53,315,28,17,37,155,21,05,34,245,*7D
$GPGSV,2,2,07,12,23,278,32,23,19,045,26,25,09,314,*44
$GPRMC,021713.999,A,3704.6589,N,12649.9912,E,000.0,041.2,161116,,,A*6F
$GPVTG,041.2,T,,M,000.0,N,000.0,K,A*0A
$GPGGA,021714.999,3704.6588,N,12649.9912,E,1,05,1.2,9.5,M,21.4,M,,0000*51
$GPGSA,A,3,02,06,12,17,23,,,,,,,,2.3,1.2,2.0*32
$GPGSV,2,1,07,06,67,037,29,02,53,315,27,17,37,155,21,05,34,245,*72
$GPGSV,2,2,07,12,23,277,32,23,19,045,26,25,09,314,*4B
$GPRMC,021714.999,A,3704.6588,N,12649.9912,E,000.0,041.2,161116,,,A*69
$GPVTG,041.2,T,,M,000.0,N,000.0,K,A*0A
$GPGGA,021715.999,3704.6586,N,12649.9913,E,1,05,1.2,10.1,M,21.4,M,,0000*63
$GPGSA,A,3,02,06,12,17,23,,,,,,,,2.3,1.2,2.0*32
$GPGSV,2,1,07,06,67,037,29,02,53,315,27,17,37,155,21,05,34,245,*72
$GPGSV,2,2,07,12,23,277,32,23,19,045,26,25,09,314,*4B
$GPRMC,021715.999,A,3704.6586,N,12649.9913,E,000.0,041.2,161116,,,A*67
$GPVTG,041.2,T,,M,000.0,N,000.0,K,A*0A
$GPGGA,021716.999,3704.6585,N,12649.9913,E,1,05,1.2,10.5,M,21.4,M,,0000*67
$GPGSA,A,3,02,06,12,17,23,,,,,,,,2.3,1.2,2.0*32
$GPGSV,2,1,07,06,67,037,28,02,53,315,26,17,37,155,20,05,34,245,*73
$GPGSV,2,2,07,12,23,277,31,23,19,045,27,25,09,314,*49
$GPRMC,021716.999,A,3704.6585,N,12649.9913,E,000.0,041.2,161116,,,A*67
$GPVTG,041.2,T,,M,000.0,N,000.0,K,A*0A
$GPGGA,021717.999,3704.6583,N,12649.9913,E,1,05,1.2,11.0,M,21.4,M,,0000*64
$GPGSA,A,3,02,06,12,17,23,,,,,,,,2.3,1.2,2.0*32
$GPGSV,2,1,07,06,67,037,28,02,53,315,26,17,37,155,20,05,34,245,*73
$GPGSV,2,2,07,12,23,277,32,23,19,045,25,25,09,314,*48
$GPRMC,021717.999,A,3704.6583,N,12649.9913,E,000.0,041.2,161116,,,A*60
$GPVTG,041.2,T,,M,000.0,N,000.0,K,A*0A
$GPGGA,021718.999,3704.6582,N,12649.9913,E,1,05,1.2,11.4,M,21.4,M,,0000*6E
$GPGSA,A,3,02,06,12,17,23,,,,,,,,2.3,1.2,2.0*32
$GPGSV,2,1,07,06,67,037,28,02,53,315,27,17,37,155,20,05,34,245,*72
$GPGSV,2,2,07,12,23,277,31,23,19,045,27,25,09,314,*49
$GPRMC,021718.999,A,3704.6582,N,12649.9913,E,000.0,041.2,161116,,,A*6E
$GPVTG,041.2,T,,M,000.0,N,000.0,K,A*0A
$GPGGA,021719.999,3704.6581,N,12649.9913,E,1,05,1.2,11.7,M,21.4,M,,0000*6F
$GPGSA,A,3,02,06,12,17,23,,,,,,,,2.3,1.2,2.0*32
$GPGSV,2,1,07,06,67,037,29,02,53,315,27,17,37,155,20,05,34,245,*73
$GPGSV,2,2,07,12,23,277,31,23,19,045,25,25,09,314,*4B
$GPRMC,021719.999,A,3704.6581,N,12649.9913,E,000.0,041.2,161116,,,A*6C
$GPVTG,041.2,T,,M,000.0,N,000.0,K,A*0A
$GPGGA,021720.999,3704.6580,N,12649.9913,E,1,05,1.2,12.2,M,21.4,M,,0000*62
$GPGSA,A,3,02,06,12,17,23,,,,,,,,2.3,1.2,2.0*32
$GPGSV,2,1,07,06,67,037,29,02,53,315,28,17,37,155,19,05,34,245,*76
$GPGSV,2,2,07,12,23,277,31,23,19,045,26,25,09,314,*48
$GPRMC,021720.999,A,3704.6580,N,12649.9913,E,000.0,041.2,161116,,,A*67
$GPVTG,041.2,T,,M,000.0,N,000.0,K,A*0A
$GPGGA,021721.999,3704.6580,N,12649.9913,E,1,05,1.2,12.6,M,21.4,M,,0000*67
$GPGSA,A,3,02,06,12,17,23,,,,,,,,2.3,1.2,2.0*32
$GPGSV,2,1,07,06,67,037,28,02,53,315,27,17,37,155,19,05,34,245,*78
$GPGSV,2,2,07,12,23,277,31,23,19,045,26,25,09,313,*4F
$GPRMC,021721.999,A,3704.6580,N,12649.9913,E,000.0,041.2,161116,,,A*66
$GPVTG,041.2,T,,M,000.0,N,000.0,K,A*0A
$GPGGA,021722.999,3704.6580,N,12649.9913,E,1,05,1.2,13.0,M,21.4,M,,0000*63
$GPGSA,A,3,02,06,12,17,23,,,,,,,,2.3,1.2,2.0*32
$GPGSV,2,1,07,06,67,037,29,02,53,315,26,17,37,155,18,05,34,245,*79
$GPGSV,2,2,07,12,23,277,31,23,19,045,25,25,09,313,*4C
$GPRMC,021722.999,A,3704.6580,N,12649.9913,E,000.0,041.2,161116,,,A*65
$GPVTG,041.2,T,,M,000.0,N,000.0,K,A*0A
$GPGGA,021723.999,3704.6580,N,12649.9915,E,1,05,1.2,13.3,M,21.4,M,,0000*67
$GPGSA,A,3,02,06,12,17,23,,,,,,,,2.3,1.2,2.0*32
$GPGSV,2,1,07,06,67,037,28,02,53,315,26,17,37,155,19,05,34,245,*79
$GPGSV,2,2,07,12,23,277,31,23,19,045,25,25,09,313,*4C
$GPRMC,021723.999,A,3704.6580,N,12649.9915,E,000.0,041.2,161116,,,A*62
$GPVTG,041.2,T,,M,000.0,N,000.0,K,A*0A
$GPGGA,021724.999,3704.6580,N,12649.9917,E,1,05,1.2,13.6,M,21.4,M,,0000*67
$GPGSA,A,3,02,06,12,17,23,,,,,,,,2.3,1.2,2.0*32
$GPGSV,2,1,07,06,67,037,28,02,53,315,25,17,37,155,20,05,34,245,*70
$GPGSV,2,2,07,12,23,277,32,23,19,045,25,25,09,313,*4F
$GPRMC,021724.999,A,3704.6580,N,12649.9917,E,000.0,041.2,161116,,,A*67
$GPVTG,041.2,T,,M,000.0,N,000.0,K,A*0A
$GPGGA,021725.999,3704.6580,N,12649.9917,E,1,05,1.2,14.0,M,21.4,M,,0000*67
$GPGSA,A,3,02,06,12,17,23,,,,,,,,2.3,1.2,2.0*32
$GPGSV,2,1,07,06,67,037,28,02,53,315,25,17,37,155,20,05,34,245,*70
$GPGSV,2,2,07,12,23,277,32,23,19,045,25,25,09,313,*4F
$GPRMC,021725.999,A,3704.6580,N,12649.9917,E,000.0,041.2,161116,,,A*66
$GPVTG,041.2,T,,M,000.0,N,000.0,K,A*0A
$GPGGA,021726.999,3704.6579,N,12649.9918,E,1,05,1.2,14.5,M,21.4,M,,0000*68
$GPGSA,A,3,02,06,12,17,23,,,,,,,,2.3,1.2,2.0*32
$GPGSV,2,1,07,06,67,037,27,02,53,316,26,17,37,155,20,05,34,245,*7F
$GPGSV,2,2,07,12,23,277,32,23,19,045,25,25,09,313,*4F
$GPRMC,021726.999,A,3704.6579,N,12649.9918,E,000.0,041.2,161116,,,A*6C
$GPVTG,041.2,T,,M,000.0,N,000.0,K,A*0A
$GPGGA,021727.999,3704.6580,N,12649.9919,E,1,05,1.2,14.8,M,21.4,M,,0000*63
$GPGSA,A,3,02,06,12,17,23,,,,,,,,2.3,1.2,2.0*32
$GPGSV,2,1,07,06,67,037,28,02,53,316,25,17,37,155,20,05,34,245,*73
$GPGSV,2,2,07,12,23,277,32,23,19,045,25,25,09,313,*4F
$GPRMC,021727.999,A,3704.6580,N,12649.9919,E,000.0,041.2,161116,,,A*6A
$GPVTG,041.2,T,,M,000.0,N,000.0,K,A*0A
$GPGGA,021728.999,3704.6580,N,12649.9920,E,1,05,1.2,15.3,M,21.4,M,,0000*6C
$GPGSA,A,3,02,06,12,17,23,,,,,,,,2.3,1.2,2.0*32
$GPGSV,2,1,07,06,67,037,28,02,53,316,25,17,37,155,19,05,34,245,*79
$GPGSV,2,2,07,12,23,277,32,23,19,045,24,25,09,313,*4E
$GPRMC,021728.999,A,3704.6580,N,12649.9920,E,000.0,041.2,161116,,,A*6F
$GPVTG,041.2,T,,M,000.0,N,000.0,K,A*0A
$GPGGA,021729.999,3704.6580,N,12649.9921,E,1,05,1.2,15.5,M,21.4,M,,0000*6A
$GPGSA,A,3,02,06,12,17,23,,,,,,,,2.3,1.2,2.0*32
$GPGSV,2,1,07,06,67,037,26,02,53,316,25,17,37,155,19,05,34,245,*77
$GPGSV,2,2,07,12,23,277,31,23,19,045,24,25,09,313,*4D
$GPRMC,021729.999,A,3704.6580,N,12649.9921,E,000.0,041.2,161116,,,A*6F
$GPVTG,041.2,T,,M,000.0,N,000.0,K,A*0A
$GPGGA,021730.999,3704.6579,N,12649.9924,E,1,05,1.2,16.0,M,21.4,M,,0000*67
$GPGSA,A,3,02,06,12,17,23,,,,,,,,2.3,1.2,2.0*32
$GPGSV,2,1,07,06,67,037,37,02,53,316,24,17,37,155,23,05,34,245,*7F
$GPGSV,2,2,07,12,23,277,28,23,19,045,24,25,09,313,*45
$GPRMC,021730.999,A,3704.6579,N,12649.9924,E,000.0,041.2,161116,,,A*64
$GPVTG,041.2,T,,M,000.0,N,000.0,K,A*0A
$GPGGA,021731.999,3704.6576,N,12649.9928,E,1,05,1.2,16.2,M,21.4,M,,0000*67
$GPGSA,A,3,02,06,12,17,23,,,,,,,,2.3,1.2,2.0*32
$GPGSV,2,1,07,06,67,037,34,02,53,316,24,17,37,155,25,05,34,245,*7A
$GPGSV,2,2,07,12,23,277,29,23,19,045,23,25,09,313,*43
$GPRMC,021731.999,A,3704.6576,N,12649.9928,E,000.0,041.2,161116,,,A*66
$GPVTG,041.2,T,,M,000.0,N,000.0,K,A*0A
$GPGGA,021732.999,3704.6573,N,12649.9930,E,1,04,7.7,16.2,M,21.4,M,,0000*6A
$GPGSA,A,3,02,06,12,17,,,,,,,,,15.4,7.7,13.4*35
$GPGSV,2,1,07,06,67,037,32,02,53,316,24,17,37,155,26,05,34,245,*7F
$GPGSV,2,2,07,12,23,277,25,23,19,045,22,25,09,313,*4E
$GPRMC,021732.999,A,3704.6573,N,12649.9930,E,000.0,041.2,161116,,,A*69
$GPVTG,041.2,T,,M,000.0,N,000.0,K,A*0A
$GPGGA,021733.999,3704.6569,N,12649.9932,E,1,05,1.2,16.1,M,21.4,M,,0000*63
$GPGSA,A,3,02,06,12,17,23,,,,,,,,2.3,1.2,1.9*38
$GPGSV,2,1,07,06,67,037,32,02,53,316,24,17,37,155,27,05,34,245,*7E
$GPGSV,2,2,07,12,23,277,24,23,19,045,21,25,09,313,*4C
$GPRMC,021733.999,A,3704.6569,N,12649.9932,E,000.0,041.2,161116,,,A*61
$GPVTG,041.2,T,,M,000.0,N,000.0,K,A*0A
$GPGGA,021734.999,3704.6567,N,12649.9933,E,1,03,3.8,15.6,M,21.4,M,,0000*61
$GPGSA,A,2,02,06,23,,,,,,,,,,3.9,3.8,1.0*36
$GPGSV,2,1,07,06,67,037,32,02,53,316,24,17,37,155,25,05,34,245,*7C
$GPGSV,2,2,07,12,23,277,23,23,19,045,21,25,09,313,*4B
$GPRMC,021734.999,A,3704.6567,N,12649.9933,E,000.0,041.2,161116,,,A*69
$GPVTG,041.2,T,,M,000.0,N,000.0,K,A*0A
$GPGGA,021735.999,3704.6566,N,12649.9933,E,1,04,1.3,15.8,M,21.4,M,,0000*61
$GPGSA,A,3,06,12,17,23,,,,,,,,,2.6,1.3,2.2*36
$GPGSV,2,1,07,06,67,037,32,02,53,316,21,17,37,155,24,05,34,245,*78
$GPGSV,2,2,07,12,23,277,22,23,19,045,20,25,09,313,*4B
$GPRMC,021735.999,A,3704.6566,N,12649.9933,E,000.0,041.2,161116,,,A*69
$GPVTG,041.2,T,,M,000.0,N,000.0,K,A*0A
$GPGGA,021736.999,3704.6565,N,12649.9932,E,1,05,1.2,15.5,M,21.4,M,,0000*6D
$GPGSA,A,3,02,06,12,17,23,,,,,,,,2.3,1.2,1.9*38
$GPGSV,2,1,07,06,67,037,31,02,53,316,19,17,37,155,24,05,34,245,*70
$GPGSV,2,2,07,12,23,277,23,23,19,045,23,25,09,313,*49
$GPRMC,021736.999,A,3704.6565,N,12649.9932,E,000.0,041.2,161116,,,A*68
$GPVTG,041.2,T,,M,000.0,N,000.0,K,A*0A
$GPGGA,021737.999,3704.6563,N,12649.9931,E,1,05,1.2,15.5,M,21.4,M,,0000*69
$GPGSA,A,3,02,06,12,17,23,,,,,,,,2.3,1.2,1.9*38
$GPGSV,2,1,07,06,67,037,31,02,53,316,19,17,37,155,24,05,34,245,*70
$GPGSV,2,2,07,12,23,277,23,23,19,045,24,25,09,313,*4E
$GPRMC,021737.999,A,3704.6563,N,12649.9931,E,000.0,041.2,161116,,,A*6C
$GPVTG,041.2,T,,M,000.0,N,000.0,K,A*0A
$GPGGA,021738.999,3704.6561,N,12649.9930,E,1,05,1.2,15.6,M,21.4,M,,0000*66
$GPGSA,A,3,02,06,12,17,23,,,,,,,,2.3,1.2,1.9*38
$GPGSV,2,1,07,06,67,037,32,02,53,316,21,17,37,155,24,05,34,245,*78
$GPGSV,2,2,07,12,23,277,24,23,19,045,25,25,09,313,*48
$GPRMC,021738.999,A,3704.6561,N,12649.9930,E,000.0,041.2,161116,,,A*60
$GPVTG,041.2,T,,M,000.0,N,000.0,K,A*0A
$GPGGA,021739.999,3704.6560,N,12649.9929,E,1,05,1.2,15.8,M,21.4,M,,0000*60
$GPGSA,A,3,02,06,12,17,23,,,,,,,,2.3,1.2,1.9*38
$GPGSV,2,1,07,06,67,037,33,02,53,316,28,17,37,155,24,05,34,245,*70
$GPGSV,2,2,07,12,23,277,28,23,19,045,25,25,09,313,*44
$GPRMC,021739.999,A,3704.6560,N,12649.9929,E,000.0,041.2,161116,,,A*68
$GPVTG,041.2,T,,M,000.0,N,000.0,K,A*0A
$GPGGA,021740.999,3704.6560,N,12649.9929,E,1,05,1.2,15.9,M,21.4,M,,0000*6F
$GPGSA,A,3,02,06,12,17,23,,,,,,,,2.3,1.2,1.9*38
$GPGSV,2,1,07,06,67,037,28,02,53,316,28,17,37,155,23,05,34,245,*7D
$GPGSV,2,2,07,12,23,277,28,23,19,045,24,25,09,313,*45
$GPRMC,021740.999,A,3704.6560,N,12649.9929,E,000.0,041.2,161116,,,A*66
$GPVTG,041.2,T,,M,000.0,N,000.0,K,A*0A
$GPGGA,021741.999,3704.6561,N,12649.9930,E,1,05,1.2,16.0,M,21.4,M,,0000*6D
$GPGSA,A,3,02,06,12,17,23,,,,,,,,2.3,1.2,1.9*38
$GPGSV,2,1,07,06,67,037,28,02,53,316,28,17,37,155,23,05,34,245,*7D
$GPGSV,2,2,07,12,23,277,29,23,19,045,24,25,09,313,*44
$GPRMC,021741.999,A,3704.6561,N,12649.9930,E,000.0,041.2,161116,,,A*6E
$GPVTG,041.2,T,,M,000.0,N,000.0,K,A*0A
$GPGGA,021742.999,3704.6561,N,12649.9930,E,1,05,1.2,16.1,M,21.4,M,,0000*6F
$GPGSA,A,3,02,06,12,17,23,,,,,,,,2.3,1.2,1.9*38
$GPGSV,2,1,07,06,67,037,36,02,53,316,25,17,37,155,23,05,34,245,*7F
$GPGSV,2,2,07,12,23,277,28,23,19,045,24,25,09,313,*45
$GPRMC,021742.999,A,3704.6561,N,12649.9930,E,000.0,041.2,161116,,,A*6D
$GPVTG,041.2,T,,M,000.0,N,000.0,K,A*0A
$GPGGA,021743.999,3704.6560,N,12649.9931,E,1,05,1.2,16.1,M,21.4,M,,0000*6E
$GPGSA,A,3,02,06,12,17,23,,,,,,,,2.3,1.2,1.9*38
$GPGSV,2,1,07,06,67,037,34,02,53,316,25,17,37,155,23,05,34,245,*7D
$GPGSV,2,2,07,12,23,277,29,23,19,045,23,25,09,313,*43
$GPRMC,021743.999,A,3704.6560,N,12649.9931,E,000.0,041.2,161116,,,A*6C
$GPVTG,041.2,T,,M,000.0,N,000.0,K,A*0A
$GPGGA,021744.999,3704.6560,N,12649.9931,E,1,05,1.2,16.2,M,21.4,M,,0000*6A
$GPGSA,A,3,02,06,12,17,23,,,,,,,,2.3,1.2,1.9*38
$GPGSV,2,1,07,06,67,037,34,02,53,316,25,17,37,155,22,05,34,245,*7C
$GPGSV,2,2,07,12,23,277,30,23,19,045,23,25,09,313,*4B
$GPRMC,021744.999,A,3704.6560,N,12649.9931,E,000.0,041.2,161116,,,A*6B
$GPVTG,041.2,T,,M,000.0,N,000.0,K,A*0A
$GPGGA,021745.999,3704.6561,N,12649.9931,E,1,05,1.2,16.4,M,21.4,M,,0000*6C
$GPGSA,A,3,02,06,12,17,23,,,,,,,,2.3,1.2,1.9*38
$GPGSV,2,1,07,06,67,037,30,02,53,316,27,17,37,155,21,05,34,245,*79
$GPGSV,2,2,07,12,23,277,29,23,19,045,23,25,09,313,*43
$GPRMC,021745.999,A,3704.6561,N,12649.9931,E,000.0,041.2,161116,,,A*6B
$GPVTG,041.2,T,,M,000.0,N,000.0,K,A*0A
$GPGGA,021746.999,3704.6561,N,12649.9933,E,1,05,1.2,16.5,M,21.4,M,,0000*6C
$GPGSA,A,3,02,06,12,17,23,,,,,,,,2.3,1.2,1.9*38
$GPGSV,2,1,07,06,67,037,30,02,53,316,28,17,37,155,21,05,34,245,*76
$GPGSV,2,2,07,12,23,277,32,23,19,045,22,25,09,313,*48
$GPRMC,021746.999,A,3704.6561,N,12649.9933,E,000.0,041.2,161116,,,A*6A
$GPVTG,041.2,T,,M,000.0,N,000.0,K,A*0A
$GPGGA,021747.999,3704.6562,N,12649.9933,E,1,05,1.2,16.5,M,21.4,M,,0000*6E
$GPGSA,A,3,02,06,12,17,23,,,,,,,,2.3,1.2,1.9*38
$GPGSV,2,1,07,06,67,037,30,02,53,316,28,17,37,155,21,05,34,245,*76
$GPGSV,2,2,07,12,23,277,31,23,19,045,21,25,09,313,*48
$GPRMC,021747.999,A,3704.6562,N,12649.9933,E,000.0,041.2,161116,,,A*68
$GPVTG,041.2,T,,M,000.0,N,000.0,K,A*0A
$GPGGA,021748.999,3704.6563,N,12649.9934,E,1,05,1.2,16.7,M,21.4,M,,0000*65
$GPGSA,A,3,02,06,12,17,23,,,,,,,,2.3,1.2,1.9*38
$GPGSV,2,1,07,06,67,037,30,02,53,316,28,17,37,155,20,05,34,245,*77
$GPGSV,2,2,07,12,23,277,31,23,19,045,20,25,09,313,*49
$GPRMC,021748.999,A,3704.6563,N,12649.9934,E,000.0,041.2,161116,,,A*61
$GPVTG,041.2,T,,M,000.0,N,000.0,K,A*0A
$GPGGA,021749.999,3704.6564,N,12649.9935,E,1,05,1.2,16.8,M,21.4,M,,0000*6D
$GPGSA,A,3,02,06,12,17,23,,,,,,,,2.3,1.2,1.9*38
$GPGSV,2,1,07,06,67,037,30,02,53,316,28,17,37,155,20,05,34,245,*77
$GPGSV,2,2,07,12,23,277,32,23,19,045,19,25,09,313,*40
$GPRMC,021749.999,A,3704.6564,N,12649.9935,E,000.0,041.2,161116,,,A*66
$GPVTG,041.2,T,,M,000.0,N,000.0,K,A*0A
$GPGGA,021750.999,3704.6565,N,12649.9936,E,1,04,7.7,16.9,M,21.4,M,,0000*64
$GPGSA,A,3,02,06,12,17,,,,,,,,,15.4,7.7,13.4*35
$GPGSV,2,1,07,06,67,037,29,02,53,316,28,17,37,155,20,05,34,245,*7F
$GPGSV,2,2,07,12,23,277,32,23,19,045,17,25,09,313,*4E
$GPRMC,021750.999,A,3704.6565,N,12649.9936,E,000.0,041.2,161116,,,A*6C
$GPVTG,041.2,T,,M,000.0,N,000.0,K,A*0A
$GPGGA,021751.999,3704.6566,N,12649.9937,E,1,04,7.7,17.0,M,21.4,M,,0000*6F
$GPGSA,A,3,02,06,12,17,,,,,,,,,15.4,7.7,13.4*35
$GPGSV,2,1,07,06,67,037,30,02,53,316,28,17,37,155,19,05,34,245,*7D
$GPGSV,2,2,07,12,23,277,32,23,19,045,15,25,09,313,*4C
$GPRMC,021751.999,A,3704.6566,N,12649.9937,E,000.0,041.2,161116,,,A*6F
$GPVTG,041.2,T,,M,000.0,N,000.0,K,A*0A
$GPGGA,021752.999,3704.6567,N,12649.9937,E,1,04,7.7,17.1,M,21.4,M,,0000*6C
$GPGSA,A,3,02,06,12,17,,,,,,,,,15.4,7.7,13.4*35
$GPGSV,2,1,07,06,67,037,30,02,53,316,29,17,36,155,19,05,34,245,*7D
$GPGSV,2,2,07,12,23,277,32,23,19,045,13,25,09,313,*4A
$GPRMC,021752.999,A,3704.6567,N,12649.9937,E,000.0,041.2,161116,,,A*6D
$GPVTG,041.2,T,,M,000.0,N,000.0,K,A*0A
$GPGGA,021753.999,3704.6567,N,12649.9937,E,1,04,7.7,17.1,M,21.4,M,,0000*6D
$GPGSA,A,3,02,06,12,17,,,,,,,,,15.4,7.7,13.4*35
$GPGSV,2,1,07,06,67,037,30,02,53,316,29,17,36,155,19,05,34,245,*7D
$GPGSV,2,2,07,12,23,277,31,23,19,045,12,25,09,313,*48
$GPRMC,021753.999,A,3704.6567,N,12649.9937,E,000.0,041.2,161116,,,A*6C
$GPVTG,041.2,T,,M,000.0,N,000.0,K,A*0A
$GPGGA,021754.999,3704.6567,N,12649.9937,E,1,04,7.7,17.1,M,21.4,M,,0000*6A
$GPGSA,A,3,02,06,12,17,,,,,,,,,15.4,7.7,13.4*35
$GPGSV,2,1,07,06,67,037,31,02,53,316,29,17,36,155,18,05,34,245,*7D
$GPGSV,2,2,07,12,23,277,31,23,19,045,11,25,09,313,*4B
$GPRMC,021754.999,A,3704.6567,N,12649.9937,E,000.0,041.2,161116,,,A*6B
$GPVTG,041.2,T,,M,000.0,N,000.0,K,A*0A
$GPGGA,021755.999,3704.6567,N,12649.9938,E,1,04,7.7,17.0,M,21.4,M,,0000*65
$GPGSA,A,3,02,06,12,17,,,,,,,,,15.4,7.7,13.4*35
$GPGSV,2,1,07,06,67,037,31,02,53,316,28,17,36,155,18,05,34,245,*7C
$GPGSV,2,2,07,12,23,277,31,23,19,045,11,25,09,313,*4B
$GPRMC,021755.999,A,3704.6567,N,12649.9938,E,000.0,041.2,161116,,,A*65
$GPVTG,041.2,T,,M,000.0,N,000.0,K,A*0A
$GPGGA,021756.999,3704.6567,N,12649.9938,E,1,04,7.7,16.8,M,21.4,M,,0000*6F
$GPGSA,A,3,02,06,12,17,,,,,,,,,15.4,7.7,13.3*32
$GPGSV,2,1,07,06,67,037,32,02,53,316,28,17,36,155,17,05,34,245,*70
$GPGSV,2,2,07,12,23,277,31,23,19,045,12,25,09,313,*48
$GPRMC,021756.999,A,3704.6567,N,12649.9938,E,000.0,041.2,161116,,,A*66
$GPVTG,041.2,T,,M,000.0,N,000.0,K,A*0A
$GPGGA,021757.999,3704.6567,N,12649.9939,E,1,03,6.4,16.8,M,21.4,M,,0000*6A
$GPGSA,A,2,02,06,12,,,,,,,,,,6.5,6.4,1.4*30
$GPGSV,2,1,07,06,67,037,31,02,53,316,29,17,36,155,15,05,34,245,*70
$GPGSV,2,2,07,12,23,277,32,23,19,045,10,25,09,313,*49
$GPRMC,021757.999,A,3704.6567,N,12649.9939,E,000.0,041.2,161116,,,A*66
$GPVTG,041.2,T,,M,000.0,N,000.0,K,A*0A
$GPGGA,021758.999,3704.6567,N,12649.9940,E,1,03,6.4,16.7,M,21.4,M,,0000*64
$GPGSA,A,2,02,06,12,,,,,,,,,,6.5,6.4,1.4*30
$GPGSV,2,1,07,06,67,037,31,02,53,316,29,17,36,155,13,05,34,245,*76
$GPGSV,2,2,07,12,23,277,32,23,19,045,10,25,09,313,*49
$GPRMC,021758.999,A,3704.6567,N,12649.9940,E,000.0,041.2,161116,,,A*67
$GPVTG,041.2,T,,M,000.0,N,000.0,K,A*0A
$GPGGA,021759.999,3704.6567,N,12649.9940,E,1,03,6.4,16.7,M,21.4,M,,0000*65
$GPGSA,A,2,02,06,12,,,,,,,,,,6.5,6.4,1.4*30
$GPGSV,2,1,07,06,67,037,32,02,53,316,29,17,36,155,13,05,34,245,*75
$GPGSV,2,2,07,12,23,277,33,23,19,045,10,25,09,313,*48
$GPRMC,021759.999,A,3704.6567,N,12649.9940,E,000.0,041.2,161116,,,A*66
$GPVTG,041.2,T,,M,000.0,N,000.0,K,A*0A
$GPGGA,021800.999,3704.6567,N,12649.9941,E,1,03,6.4,16.7,M,21.4,M,,0000*67
$GPGSA,A,2,02,06,12,,,,,,,,,,6.5,6.4,1.4*30
$GPGSV,2,1,07,06,67,037,32,02,53,316,29,17,36,155,11,05,34,245,*77
$GPGSV,2,2,07,12,23,277,33,23,19,045,09,25,09,313,*40
$GPRMC,021800.999,A,3704.6567,N,12649.9941,E,000.0,041.2,161116,,,A*64
$GPVTG,041.2,T,,M,000.0,N,000.0,K,A*0A
$GPGGA,021801.999,3704.6567,N,12649.9941,E,1,04,4.8,16.7,M,21.4,M,,0000*6F
$GPGSA,A,3,02,06,12,23,,,,,,,,,5.2,4.8,2.1*3C
$GPGSV,2,1,07,06,67,037,32,02,53,316,28,17,36,155,10,05,34,245,*77
$GPGSV,2,2,07,12,23,277,33,23,19,045,10,25,09,313,*48
$GPRMC,021801.999,A,3704.6567,N,12649.9941,E,000.0,041.2,161116,,,A*65
$GPVTG,041.2,T,,M,000.0,N,000.0,K,A*0A
$GPGGA,021802.999,3704.6568,N,12649.9941,E,1,04,4.8,16.7,M,21.4,M,,0000*63
$GPGSA,A,3,02,06,12,23,,,,,,,,,5.2,4.8,2.1*3C
$GPGSV,2,1,07,06,67,037,31,02,53,316,28,17,36,155,09,05,34,245,*7C
$GPGSV,2,2,07,12,23,277,33,23,19,045,12,25,09,313,*4A
$GPRMC,021802.999,A,3704.6568,N,12649.9941,E,000.0,041.2,161116,,,A*69
$GPVTG,041.2,T,,M,000.0,N,000.0,K,A*0A
$GPGGA,021803.999,3704.6568,N,12649.9942,E,1,03,6.4,16.8,M,21.4,M,,0000*67
$GPGSA,A,2,02,06,12,,,,,,,,,,6.5,6.4,1.4*30
$GPGSV,2,1,07,06,67,038,31,02,53,316,29,17,36,155,11,05,34,245,*7B
$GPGSV,2,2,07,12,23,277,33,23,19,045,12,25,09,313,*4A
$GPRMC,021803.999,A,3704.6568,N,12649.9942,E,000.0,041.2,161116,,,A*6B
$GPVTG,041.2,T,,M,000.0,N,000.0,K,A*0A
$GPGGA,021804.999,3704.6568,N,12649.9943,E,1,03,6.4,16.9,M,21.4,M,,0000*60
$GPGSA,A,2,02,06,12,,,,,,,,,,6.5,6.4,1.4*30
$GPGSV,2,1,07,06,67,038,31,02,53,316,29,17,36,155,14,05,34,245,*7E
$GPGSV,2,2,07,12,23,277,33,23,19,045,12,25,09,313,*4A
$GPRMC,021804.999,A,3704.6568,N,12649.9943,E,000.0,041.2,161116,,,A*6D
$GPVTG,041.2,T,,M,000.0,N,000.0,K,A*0A
$GPGGA,021805.999,3704.6568,N,12649.9943,E,1,04,4.8,16.9,M,21.4,M,,0000*68
$GPGSA,A,3,02,06,12,23,,,,,,,,,5.2,4.8,2.1*3C
$GPGSV,2,1,07,06,67,038,31,02,53,316,28,17,36,155,13,05,34,245,*78
$GPGSV,2,2,07,12,23,277,33,23,19,045,14,25,09,313,*4C
$GPRMC,021805.999,A,3704.6568,N,12649.9943,E,000.0,041.2,161116,,,A*6C
$GPVTG,041.2,T,,M,000.0,N,000.0,K,A*0A
$GPGGA,021806.999,3704.6568,N,12649.9943,E,1,04,4.8,17.0,M,21.4,M,,0000*63
$GPGSA,A,3,02,06,12,23,,,,,,,,,5.2,4.8,2.1*3C
$GPGSV,2,1,07,06,67,038,31,02,53,316,29,17,36,155,13,05,34,245,*79
$GPGSV,2,2,07,12,23,277,33,23,19,045,14,25,09,313,*4C
$GPRMC,021806.999,A,3704.6568,N,12649.9943,E,000.0,041.2,161116,,,A*6F
$GPVTG,041.2,T,,M,000.0,N,000.0,K,A*0A
$GPGGA,021807.999,3704.6568,N,12649.9944,E,1,04,4.8,17.0,M,21.4,M,,0000*65
$GPGSA,A,3,02,06,12,23,,,,,,,,,5.2,4.8,2.1*3C
$GPGSV,2,1,07,06,67,038,30,02,53,316,29,17,36,155,13,05,34,245,*78
$GPGSV,2,2,07,12,23,277,33,23,19,045,14,25,09,313,*4C
$GPRMC,021807.999,A,3704.6568,N,12649.9944,E,000.0,041.2,161116,,,A*69
$GPVTG,041.2,T,,M,000.0,N,000.0,K,A*0A
$GPGGA,021808.999,3704.6568,N,12649.9944,E,1,04,4.8,17.1,M,21.4,M,,0000*6B
$GPGSA,A,3,02,06,12,23,,,,,,,,,5.2,4.8,2.1*3C
$GPGSV,2,1,07,06,67,038,30,02,53,316,29,17,36,155,18,05,34,245,*73
$GPGSV,2,2,07,12,23,277,33,23,19,045,15,25,09,313,*4D
$GPRMC,021808.999,A,3704.6568,N,12649.9944,E,000.0,041.2,161116,,,A*66
$GPVTG,041.2,T,,M,000.0,N,000.0,K,A*0A
$GPGGA,021809.999,3704.6567,N,12649.9945,E,1,05,1.2,17.1,M,21.4,M,,0000*6A
$GPGSA,A,3,02,06,12,17,23,,,,,,,,2.3,1.2,1.9*38
$GPGSV,2,1,07,06,67,038,31,02,53,316,30,17,36,155,16,05,34,245,*74
$GPGSV,2,2,07,12,23,277,33,23,19,045,16,25,09,313,*4E
$GPRMC,021809.999,A,3704.6567,N,12649.9945,E,000.0,041.2,161116,,,A*69
$GPVTG,041.2,T,,M,000.0,N,000.0,K,A*0A
$GPGGA,021810.999,3704.6567,N,12649.9945,E,1,04,7.7,17.1,M,21.4,M,,0000*60
$GPGSA,A,3,02,06,12,17,,,,,,,,,15.4,7.7,13.3*32
$GPGSV,2,1,07,06,67,038,31,02,53,316,30,17,36,155,16,05,34,245,*74
$GPGSV,2,2,07,12,23,277,36,23,19,045,15,25,09,313,*48
$GPRMC,021810.999,A,3704.6567,N,12649.9945,E,000.0,041.2,161116,,,A*61
$GPVTG,041.2,T,,M,000.0,N,000.0,K,A*0A
$GPGGA,021811.999,3704.6568,N,12649.9945,E,1,05,1.2,17.1,M,21.4,M,,0000*6C
$GPGSA,A,3,02,06,12,17,23,,,,,,,,2.3,1.2,1.9*38
$GPGSV,2,1,07,06,67,038,30,02,53,316,28,17,36,155,23,05,34,245,*7A
$GPGSV,2,2,07,12,23,277,36,23,19,045,16,25,09,313,*4B
$GPRMC,021811.999,A,3704.6568,N,12649.9945,E,000.8,179.2,161116,,,A*6D
$GPVTG,179.2,T,,M,000.8,N,001.6,K,A*0F
$GPGGA,021812.999,3704.6568,N,12649.9945,E,1,05,1.2,17.2,M,21.4,M,,0000*6C
$GPGSA,A,3,02,06,12,17,23,,,,,,,,2.3,1.2,1.9*38
$GPGSV,2,1,07,06,67,038,29,02,53,316,29,17,36,155,23,05,34,245,*73
$GPGSV,2,2,07,12,23,277,36,23,19,045,18,25,10,313,*4D
$GPRMC,021812.999,A,3704.6568,N,12649.9945,E,000.0,179.2,161116,,,A*66
$GPVTG,179.2,T,,M,000.0,N,000.0,K,A*00
$GPGGA,021813.999,3704.6565,N,12649.9947,E,1,05,1.2,17.3,M,21.4,M,,0000*63
$GPGSA,A,3,02,06,12,17,23,,,,,,,,2.3,1.2,1.9*38
$GPGSV,2,1,07,06,67,038,31,02,53,316,28,17,36,155,26,05,34,245,*7E
$GPGSV,2,2,07,12,23,277,35,23,19,045,17,25,10,313,*41
$GPRMC,021813.999,A,3704.6565,N,12649.9947,E,000.0,179.2,161116,,,A*68
$GPVTG,179.2,T,,M,000.0,N,000.0,K,A*00
$GPGGA,021814.999,3704.6563,N,12649.9948,E,1,05,1.2,17.3,M,21.4,M,,0000*6D
$GPGSA,A,3,02,06,12,17,23,,,,,,,,2.3,1.2,1.9*38
$GPGSV,2,1,07,06,67,038,31,02,53,316,27,17,36,155,25,05,34,245,*72
$GPGSV,2,2,07,12,23,277,35,23,19,045,17,25,10,313,*41
$GPRMC,021814.999,A,3704.6563,N,12649.9948,E,000.0,179.2,161116,,,A*66
$GPVTG,179.2,T,,M,000.0,N,000.0,K,A*00
$GPGGA,021815.999,3704.6561,N,12649.9949,E,1,05,1.2,17.4,M,21.4,M,,0000*68
$GPGSA,A,3,02,06,12,17,23,,,,,,,,2.3,1.2,1.9*38
$GPGSV,2,1,07,06,67,038,30,02,53,316,27,17,36,155,25,05,34,245,*73
$GPGSV,2,2,07,12,23,277,35,23,19,045,17,25,10,313,*41
$GPRMC,021815.999,A,3704.6561,N,12649.9949,E,000.0,179.2,161116,,,A*64
$GPVTG,179.2,T,,M,000.0,N,000.0,K,A*00
$GPGGA,021816.999,3704.6560,N,12649.9949,E,1,05,1.2,17.4,M,21.4,M,,0000*6A
$GPGSA,A,3,02,06,12,17,23,,,,,,,,2.3,1.2,1.9*38
$GPGSV,2,1,07,06,67,038,30,02,53,316,26,17,36,155,24,05,34,245,*73
$GPGSV,2,2,07,12,23,277,35,23,19,045,18,25,10,313,*4E
$GPRMC,021816.999,A,3704.6560,N,12649.9949,E,000.0,179.2,161116,,,A*66
$GPVTG,179.2,T,,M,000.0,N,000.0,K,A*00
$GPGGA,021817.999,3704.6560,N,12649.9950,E,1,05,1.2,17.4,M,21.4,M,,0000*63
$GPGSA,A,3,02,06,12,17,23,,,,,,,,2.3,1.2,1.9*38
$GPGSV,2,1,07,06,67,038,30,02,54,316,28,17,36,155,23,05,34,245,*7D
$GPGSV,2,2,07,12,23,277,35,23,19,045,17,25,10,313,*41
$GPRMC,021817.999,A,3704.6560,N,12649.9950,E,000.0,179.2,161116,,,A*6F
$GPVTG,179.2,T,,M,000.0,N,000.0,K,A*00
$GPGGA,021818.999,3704.6560,N,12649.9950,E,1,05,1.2,17.4,M,21.4,M,,0000*6C
$GPGSA,A,3,02,06,12,17,23,,,,,,,,2.3,1.2,1.9*38
$GPGSV,2,1,07,06,67,038,31,02,54,316,27,17,36,155,22,05,34,245,*72
$GPGSV,2,2,07,12,23,277,35,23,19,045,19,25,10,313,*4F
$GPRMC,021818.999,A,3704.6560,N,12649.9950,E,000.0,179.2,161116,,,A*60
$GPVTG,179.2,T,,M,000.0,N,000.0,K,A*00
$GPGGA,021819.999,3704.6560,N,12649.9950,E,1,05,1.2,17.4,M,21.4,M,,0000*6D
$GPGSA,A,3,02,06,12,17,23,,,,,,,,2.3,1.2,1.9*38
$GPGSV,2,1,07,06,67,038,30,02,54,316,27,17,36,155,22,05,34,245,*73
$GPGSV,2,2,07,12,23,277,35,23,19,045,19,25,10,313,*4F
$GPRMC,021819.999,A,3704.6560,N,12649.9950,E,000.0,179.2,161116,,,A*61
$GPVTG,179.2,T,,M,000.0,N,000.0,K,A*00
$GPGGA,021820.999,3704.6561,N,12649.9951,E,1,05,1.2,17.4,M,21.4,M,,0000*67
$GPGSA,A,3,02,06,12,17,23,,,,,,,,2.3,1.2,1.9*38
$GPGSV,2,1,07,06,67,038,30,02,54,316,31,17,36,155,25,05,34,245,*73
$GPGSV,2,2,07,12,23,277,34,23,19,045,19,25,10,313,*4E
$GPRMC,021820.999,A,3704.6561,N,12649.9951,E,000.0,179.2,161116,,,A*6B
$GPVTG,179.2,T,,M,000.0,N,000.0,K,A*00
$GPGGA,021821.999,3704.6563,N,12649.9950,E,1,05,1.2,17.4,M,21.4,M,,0000*65
$GPGSA,A,3,02,06,12,17,23,,,,,,,,2.3,1.2,1.9*38
$GPGSV,2,1,07,06,67,038,30,02,54,316,29,17,36,155,26,05,34,245,*79
$GPGSV,2,2,07,12,23,277,34,23,19,045,18,25,10,313,*4F
$GPRMC,021821.999,A,3704.6563,N,12649.9950,E,000.0,179.2,161116,,,A*69
$GPVTG,179.2,T,,M,000.0,N,000.0,K,A*00
$GPGGA,021822.999,3704.6563,N,12649.9950,E,1,05,1.2,17.4,M,21.4,M,,0000*66
$GPGSA,A,3,02,06,12,17,23,,,,,,,,2.3,1.2,1.9*38
$GPGSV,2,1,07,06,67,038,30,02,54,316,28,17,36,155,25,05,34,245,*7B
$GPGSV,2,2,07,12,23,277,34,23,19,045,19,25,10,313,*4E
$GPRMC,021822.999,A,3704.6563,N,12649.9950,E,000.0,179.2,161116,,,A*6A
$GPVTG,179.2,T,,M,000.0,N,000.0,K,A*00
$GPGGA,021823.999,3704.6564,N,12649.9949,E,1,05,1.2,17.4,M,21.4,M,,0000*68
$GPGSA,A,3,02,06,12,17,23,,,,,,,,2.3,1.2,1.9*38
$GPGSV,2,1,07,06,67,038,30,02,54,316,28,17,36,155,25,05,34,245,*7B
$GPGSV,2,2,07,12,23,277,34,23,19,045,19,25,10,313,*4E
$GPRMC,021823.999,A,3704.6564,N,12649.9949,E,000.0,179.2,161116,,,A*64
$GPVTG,179.2,T,,M,000.0,N,000.0,K,A*00
$GPGGA,021824.999,3704.6565,N,12649.9949,E,1,05,1.2,17.4,M,21.4,M,,0000*6E
$GPGSA,A,3,02,06,12,17,23,,,,,,,,2.3,1.2,1.9*38
$GPGSV,2,1,07,06,67,038,31,02,54,316,28,17,36,155,24,05,34,245,*7B
$GPGSV,2,2,07,12,23,277,35,23,19,045,17,25,10,313,*41
$GPRMC,021824.999,A,3704.6565,N,12649.9949,E,000.0,179.2,161116,,,A*62
$GPVTG,179.2,T,,M,000.0,N,000.0,K,A*00
$GPGGA,021825.999,3704.6565,N,12649.9949,E,1,05,1.2,17.4,M,21.4,M,,0000*6F
$GPGSA,A,3,02,06,12,17,23,,,,,,,,2.3,1.2,1.9*38
$GPGSV,2,1,07,06,67,038,31,02,54,316,29,17,36,155,24,05,34,245,*7A
$GPGSV,2,2,07,12,23,277,35,23,19,045,17,25,10,313,*41
$GPRMC,021825.999,A,3704.6565,N,12649.9949,E,000.0,179.2,161116,,,A*63
$GPVTG,179.2,T,,M,000.0,N,000.0,K,A*00
$GPGGA,021826.999,3704.6565,N,12649.9949,E,1,05,1.2,17.4,M,21.4,M,,0000*6C
$GPGSA,A,3,02,06,12,17,23,,,,,,,,2.3,1.2,1.9*38
$GPGSV,2,1,07,06,67,038,30,02,54,316,29,17,36,155,23,05,34,245,*7C
$GPGSV,2,2,07,12,23,277,35,23,19,045,16,25,10,313,*40
$GPRMC,021826.999,A,3704.6565,N,12649.9949,E,000.0,179.2,161116,,,A*60
$GPVTG,179.2,T,,M,000.0,N,000.0,K,A*00
$GPGGA,021827.999,3704.6565,N,12649.9949,E,1,05,1.2,17.4,M,21.4,M,,0000*6D
$GPGSA,A,3,02,06,12,17,23,,,,,,,,2.3,1.2,1.9*38
$GPGSV,2,1,07,06,67,038,30,02,54,316,29,17,36,155,21,05,34,245,*7E
$GPGSV,2,2,07,12,23,277,35,23,19,045,16,25,10,313,*40
$GPRMC,021827.999,A,3704.6565,N,12649.9949,E,000.0,179.2,161116,,,A*61
$GPVTG,179.2,T,,M,000.0,N,000.0,K,A*00
$GPGGA,021828.999,3704.6565,N,12649.9949,E,1,05,1.2,17.4,M,21.4,M,,0000*62
$GPGSA,A,3,02,06,12,17,23,,,,,,,,2.3,1.2,1.9*38
$GPGSV,2,1,07,06,67,038,31,02,54,316,29,17,36,155,21,05,34,245,*7F
$GPGSV,2,2,07,12,23,277,35,23,19,045,16,25,10,313,*40
$GPRMC,021828.999,A,3704.6565,N,12649.9949,E,000.0,179.2,161116,,,A*6E
$GPVTG,179.2,T,,M,000.0,N,000.0,K,A*00
$GPGGA,021829.999,3704.6565,N,12649.9949,E,1,05,1.2,17.4,M,21.4,M,,0000*63
$GPGSA,A,3,02,06,12,17,23,,,,,,,,2.3,1.2,1.9*38
$GPGSV,2,1,07,06,67,038,30,02,54,316,29,17,36,155,20,05,34,245,*7F
$GPGSV,2,2,07,12,23,277,37,23,19,045,16,25,10,313,*42
$GPRMC,021829.999,A,3704.6565,N,12649.9949,E,000.0,179.2,161116,,,A*6F
$GPVTG,179.2,T,,M,000.0,N,000.0,K,A*00
$GPGGA,021830.999,3704.6565,N,12649.9949,E,1,05,1.2,17.4,M,21.4,M,,0000*6B
$GPGSA,A,3,02,06,12,17,23,,,,,,,,2.3,1.2,1.9*38
$GPGSV,2,1,07,06,67,038,30,02,54,316,29,17,36,155,20,05,34,245,*7F
$GPGSV,2,2,07,12,23,277,36,23,19,045,16,25,10,313,*43
$GPRMC,021830.999,A,3704.6565,N,12649.9949,E,000.0,179.2,161116,,,A*67
$GPVTG,179.2,T,,M,000.0,N,000.0,K,A*00
$GPGGA,021831.999,3704.6565,N,12649.9950,E,1,05,1.2,17.5,M,21.4,M,,0000*63
$GPGSA,A,3,02,06,12,17,23,,,,,,,,2.3,1.2,1.9*38
$GPGSV,2,1,07,06,67,038,30,02,54,316,29,17,36,155,19,05,34,245,*75
$GPGSV,2,2,07,12,23,277,36,23,19,045,16,25,10,313,*43
$GPRMC,021831.999,A,3704.6565,N,12649.9950,E,000.0,179.2,161116,,,A*6E
$GPVTG,179.2,T,,M,000.0,N,000.0,K,A*00
$GPGGA,021832.999,3704.6565,N,12649.9950,E,1,05,1.2,17.5,M,21.4,M,,0000*60
$GPGSA,A,3,02,06,12,17,23,,,,,,,,2.3,1.2,1.9*38
$GPGSV,2,1,08,06,67,038,30,02,54,316,29,17,36,155,18,05,34,245,*7B
$GPGSV,2,2,08,12,23,277,36,23,19,045,18,25,10,313,,09,00,000,31*79
$GPRMC,021832.999,A,3704.6565,N,12649.9950,E,000.0,179.2,161116,,,A*6D
$GPVTG,179.2,T,,M,000.0,N,000.0,K,A*00
$GPGGA,021833.999,3704.6566,N,12649.9951,E,1,05,1.2,17.5,M,21.4,M,,0000*63
$GPGSA,A,3,02,06,12,17,23,,,,,,,,2.3,1.2,1.9*38
$GPGSV,2,1,08,06,67,038,31,02,54,316,30,17,36,155,18,05,34,245,*72
$GPGSV,2,2,08,12,23,277,36,23,19,045,18,25,10,313,,09,00,000,31*79
$GPRMC,021833.999,A,3704.6566,N,12649.9951,E,000.0,179.2,161116,,,A*6E
$GPVTG,179.2,T,,M,000.0,N,000.0,K,A*00
$GPGGA,021834.999,3704.6566,N,12649.9951,E,1,05,1.2,17.5,M,21.4,M,,0000*64
$GPGSA,A,3,02,06,12,17,23,,,,,,,,2.3,1.2,1.9*38
$GPGSV,2,1,08,06,67,038,31,02,54,316,29,17,36,155,17,05,34,245,*75
$GPGSV,2,2,08,12,23,277,36,23,19,045,18,25,10,313,,09,00,000,31*79
$GPRMC,021834.999,A,3704.6566,N,12649.9951,E,000.0,179.2,161116,,,A*69
$GPVTG,179.2,T,,M,000.0,N,000.0,K,A*00
$GPGGA,021835.999,3704.6566,N,12649.9951,E,1,05,1.2,17.6,M,21.4,M,,0000*66
$GPGSA,A,3,02,06,12,17,23,,,,,,,,2.3,1.2,1.9*38
$GPGSV,2,1,08,06,67,038,31,02,54,316,30,17,36,155,17,05,34,245,*7D
$GPGSV,2,2,08,12,23,277,35,23,19,045,18,25,10,313,,09,00,000,32*79
$GPRMC,021835.999,A,3704.6566,N,12649.9951,E,000.0,179.2,161116,,,A*68
$GPVTG,179.2,T,,M,000.0,N,000.0,K,A*00
$GPGGA,021836.999,3704.6566,N,12649.9951,E,1,05,1.2,17.6,M,21.4,M,,0000*65
$GPGSA,A,3,02,06,12,17,23,,,,,,,,2.3,1.2,1.9*38
$GPGSV,2,1,08,06,67,038,31,02,54,316,29,17,36,155,16,05,34,246,*77
$GPGSV,2,2,08,12,23,277,35,23,19,045,18,25,10,313,,09,00,000,32*79
$GPRMC,021836.999,A,3704.6566,N,12649.9951,E,000.0,179.2,161116,,,A*6B
$GPVTG,179.2,T,,M,000.0,N,000.0,K,A*00
$GPGGA,021837.999,3704.6566,N,12649.9952,E,1,05,1.2,17.6,M,21.4,M,,0000*67
$GPGSA,A,3,02,06,12,17,23,,,,,,,,2.3,1.2,1.9*38
$GPGSV,2,1,08,06,67,038,31,02,54,316,29,17,36,155,16,05,34,246,*77
$GPGSV,2,2,08,12,23,277,35,23,19,045,17,25,10,313,,09,00,000,32*76
$GPRMC,021837.999,A,3704.6566,N,12649.9952,E,000.0,179.2,161116,,,A*69
$GPVTG,179.2,T,,M,000.0,N,000.0,K,A*00
$GPGGA,021838.999,3704.6565,N,12649.9952,E,1,05,1.2,17.6,M,21.4,M,,0000*6B
$GPGSA,A,3,02,06,12,17,23,,,,,,,,2.3,1.2,1.9*38
$GPGSV,2,1,08,06,67,038,30,02,54,316,29,17,36,155,22,05,34,246,*71
$GPGSV,2,2,08,12,23,277,36,23,19,045,19,25,10,313,,09,00,000,32*7B
$GPRMC,021838.999,A,3704.6565,N,12649.9952,E,000.0,179.2,161116,,,A*65
$GPVTG,179.2,T,,M,000.0,N,000.0,K,A*00
$GPGGA,021839.999,3704.6564,N,12649.9952,E,1,05,1.2,17.7,M,21.4,M,,0000*6A
$GPGSA,A,3,02,06,12,17,23,,,,,,,,2.3,1.2,1.9*38
$GPGSV,2,1,08,06,67,038,30,02,54,316,29,17,36,155,22,05,34,246,*71
$GPGSV,2,2,08,12,23,277,35,23,19,045,18,25,10,313,,09,00,000,32*79
$GPRMC,021839.999,A,3704.6564,N,12649.9952,E,000.0,179.2,161116,,,A*65
$GPVTG,179.2,T,,M,000.0,N,000.0,K,A*00
$GPGGA,021837.999,3704.6562,N,12649.9953,E,1,05,1.2,17.7,M,21.4,M,,0000*63
$GPGSA,A,3,02,06,12,17,23,,,,,,,,2.3,1.2,1.9*38
$GPGSV,2,1,08,06,67,038,30,02,54,316,28,17,36,155,22,05,34,246,*70
$GPGSV,2,2,08,12,23,277,35,23,19,045,18,25,10,313,,09,00,000,32*79
$GPRMC,021837.999,A,3704.6562,N,12649.9953,E,000.0,179.2,161116,,,A*6C
$GPVTG,179.2,T,,M,000.0,N,000.0,K,A*00
$GPGGA,021838.999,3704.6562,N,12649.9953,E,1,05,1.2,17.7,M,21.4,M,,0000*6C
$GPGSA,A,3,02,06,12,17,23,,,,,,,,2.3,1.2,1.9*38
$GPGSV,2,1,08,06,67,038,30,02,54,316,29,17,36,155,21,05,34,246,*72
$GPGSV,2,2,08,12,23,277,35,23,19,045,18,25,10,313,,09,00,000,31*7A
$GPRMC,021838.999,A,3704.6562,N,12649.9953,E,000.0,179.2,161116,,,A*63
$GPVTG,179.2,T,,M,000.0,N,000.0,K,A*00
$GPGGA,021839.999,3704.6561,N,12649.9953,E,1,05,1.2,17.7,M,21.4,M,,0000*6E
$GPGSA,A,3,02,06,12,17,23,,,,,,,,2.3,1.2,1.9*38
$GPGSV,3,1,09,06,67,038,30,02,54,316,29,17,36,155,21,05,34,246,*72
$GPGSV,3,2,09,12,23,277,35,23,19,045,18,25,10,313,,19,00,000,28*73
$GPGSV,3,3,09,09,00,000,31*4B
$GPRMC,021839.999,A,3704.6561,N,12649.9953,E,000.0,179.2,161116,,,A*61
$GPVTG,179.2,T,,M,000.0,N,000.0,K,A*00
$GPGGA,021840.999,3704.6560,N,12649.9954,E,1,05,1.2,17.8,M,21.4,M,,0000*69
$GPGSA,A,3,02,06,12,17,23,,,,,,,,2.3,1.2,1.9*38
$GPGSV,3,1,09,06,67,038,29,02,54,316,29,17,36,155,20,05,34,246,*7B
$GPGSV,3,2,09,12,23,277,35,23,19,045,20,25,10,313,,19,00,000,29*79
$GPGSV,3,3,09,09,00,000,31*4B
$GPRMC,021840.999,A,3704.6560,N,12649.9954,E,000.0,179.2,161116,,,A*69
$GPVTG,179.2,T,,M,000.0,N,000.0,K,A*00
$GPGGA,021841.999,3704.6560,N,12649.9954,E,1,05,1.2,17.8,M,21.4,M,,0000*68
$GPGSA,A,3,02,06,12,17,23,,,,,,,,2.3,1.2,1.9*38
$GPGSV,3,1,09,06,67,038,29,02,54,316,30,17,36,155,20,05,34,246,*73
$GPGSV,3,2,09,12,23,277,35,23,18,045,20,25,10,313,,19,00,000,28*79
$GPGSV,3,3,09,09,00,000,31*4B
$GPRMC,021841.999,A,3704.6560,N,12649.9954,E,000.0,179.2,161116,,,A*68
$GPVTG,179.2,T,,M,000.0,N,000.0,K,A*00
$GPGGA,021842.999,3704.6559,N,12649.9955,E,1,05,1.2,17.8,M,21.4,M,,0000*60
$GPGSA,A,3,02,06,12,17,23,,,,,,,,2.3,1.2,1.9*38
$GPGSV,3,1,09,06,67,038,29,02,54,316,28,17,36,155,20,05,34,246,*7A
$GPGSV,3,2,09,12,23,277,35,23,18,045,20,25,10,313,,19,00,000,28*79
$GPGSV,3,3,09,09,00,000,31*4B
$GPRMC,021842.999,A,3704.6559,N,12649.9955,E,000.0,179.2,161116,,,A*60
$GPVTG,179.2,T,,M,000.0,N,000.0,K,A*00
$GPGGA,021843.999,3704.6559,N,12649.9955,E,1,05,1.2,17.9,M,21.4,M,,0000*60
$GPGSA,A,3,02,06,12,17,23,,,,,,,,2.3,1.2,1.9*38
$GPGSV,3,1,09,06,67,038,28,02,54,316,28,17,36,155,20,05,34,246,06*7D
$GPGSV,3,2,09,12,23,277,36,23,18,045,21,25,10,313,,19,00,000,28*7B
$GPGSV,3,3,09,09,00,000,31*4B
$GPRMC,021843.999,A,3704.6559,N,12649.9955,E,000.0,179.2,161116,,,A*61
$GPVTG,179.2,T,,M,000.0,N,000.0,K,A*00
$GPGGA,021844.999,3704.6559,N,12649.9956,E,1,05,1.2,17.9,M,21.4,M,,0000*64
$GPGSA,A,3,02,06,12,17,23,,,,,,,,2.3,1.2,1.9*38
$GPGSV,3,1,09,06,67,038,27,02,54,316,28,17,36,155,20,05,34,246,08*7C
$GPGSV,3,2,09,12,23,277,35,23,18,045,23,25,10,313,,19,00,000,28*7A
$GPGSV,3,3,09,09,00,000,31*4B
$GPRMC,021844.999,A,3704.6559,N,12649.9956,E,000.0,179.2,161116,,,A*65
$GPVTG,179.2,T,,M,000.0,N,000.0,K,A*00
$GPGGA,021845.999,3704.6558,N,12649.9956,E,1,05,1.2,18.0,M,21.4,M,,0000*62
$GPGSA,A,3,02,06,12,17,23,,,,,,,,2.3,1.2,1.9*38
$GPGSV,3,1,09,06,67,038,27,02,54,316,28,17,36,155,20,05,34,246,08*7C
$GPGSV,3,2,09,12,23,277,35,23,18,045,23,25,10,313,,19,00,000,28*7A
$GPGSV,3,3,09,09,00,000,31*4B
$GPRMC,021845.999,A,3704.6558,N,12649.9956,E,000.0,179.2,161116,,,A*65
$GPVTG,179.2,T,,M,000.0,N,000.0,K,A*00
$GPGGA,021846.999,3704.6557,N,12649.9956,E,1,05,1.2,18.0,M,21.4,M,,0000*6E
$GPGSA,A,3,02,06,12,17,23,,,,,,,,2.3,1.2,1.9*38
$GPGSV,3,1,09,06,67,038,26,02,54,316,28,17,36,155,21,05,34,246,07*73
$GPGSV,3,2,09,12,23,277,35,23,18,045,24,25,10,313,,19,00,000,28*7D
$GPGSV,3,3,09,09,00,000,31*4B
$GPRMC,021846.999,A,3704.6557,N,12649.9956,E,000.0,179.2,161116,,,A*69
$GPVTG,179.2,T,,M,000.0,N,000.0,K,A*00
$GPGGA,021847.999,3704.6555,N,12649.9956,E,1,05,1.2,18.2,M,21.4,M,,0000*6F
$GPGSA,A,3,02,06,12,17,23,,,,,,,,2.3,1.2,1.9*38
$GPGSV,3,1,09,06,67,038,27,02,54,316,28,17,36,155,21,05,34,246,06*73
$GPGSV,3,2,09,12,23,277,35,23,18,045,25,25,10,313,,19,00,000,28*7C
$GPGSV,3,3,09,09,00,000,31*4B
$GPRMC,021847.999,A,3704.6555,N,12649.9956,E,000.0,179.2,161116,,,A*6A
$GPVTG,179.2,T,,M,000.0,N,000.0,K,A*00
$GPGGA,021848.999,3704.6554,N,12649.9956,E,1,05,1.2,18.3,M,21.4,M,,0000*60
$GPGSA,A,3,02,06,12,17,23,,,,,,,,2.3,1.2,1.9*38
$GPGSV,3,1,09,06,67,038,27,02,54,316,28,17,36,155,21,05,34,246,05*70
$GPGSV,3,2,09,12,23,277,35,23,18,045,25,25,10,313,,19,00,000,28*7C
$GPGSV,3,3,09,09,00,000,31*4B
$GPRMC,021848.999,A,3704.6554,N,12649.9956,E,000.0,179.2,161116,,,A*64
$GPVTG,179.2,T,,M,000.0,N,000.0,K,A*00
$GPGGA,021849.999,3704.6553,N,12649.9956,E,1,05,1.2,18.4,M,21.4,M,,0000*61
$GPGSA,A,3,02,06,12,17,23,,,,,,,,2.3,1.2,1.9*38
$GPGSV,3,1,09,06,67,038,27,02,54,316,28,17,36,155,21,05,34,246,05*70
$GPGSV,3,2,09,12,23,277,35,23,18,045,25,25,10,313,,19,00,000,27*73
$GPGSV,3,3,09,09,00,000,31*4B
$GPRMC,021849.999,A,3704.6553,N,12649.9956,E,000.0,179.2,161116,,,A*62
$GPVTG,179.2,T,,M,000.0,N,000.0,K,A*00
$GPGGA,021850.999,3704.6552,N,12649.9956,E,1,05,1.2,18.5,M,21.4,M,,0000*69
$GPGSA,A,3,02,06,12,17,23,,,,,,,,2.3,1.2,1.9*38
$GPGSV,3,1,09,06,67,038,27,02,54,316,33,17,36,155,20,05,34,246,07*79
$GPGSV,3,2,09,12,23,277,34,23,18,045,25,25,10,313,,19,00,000,28*7D
$GPGSV,3,3,09,09,00,000,31*4B
$GPRMC,021850.999,A,3704.6552,N,12649.9956,E,000.0,179.2,161116,,,A*6B
$GPVTG,179.2,T,,M,000.0,N,000.0,K,A*00
$GPGGA,021851.999,3704.6551,N,12649.9955,E,1,05,1.2,18.5,M,21.4,M,,0000*68
$GPGSA,A,3,02,06,12,17,23,,,,,,,,2.3,1.2,1.9*38
$GPGSV,3,1,09,06,67,039,26,02,54,316,34,17,36,155,19,05,34,246,06*75
$GPGSV,3,2,09,12,23,277,32,23,18,045,26,25,10,313,,19,00,000,27*77
$GPGSV,3,3,09,09,00,000,31*4B
$GPRMC,021851.999,A,3704.6551,N,12649.9955,E,000.0,179.2,161116,,,A*6A
$GPVTG,179.2,T,,M,000.0,N,000.0,K,A*00
$GPGGA,021852.999,3704.6551,N,12649.9955,E,1,05,1.2,18.6,M,21.4,M,,0000*68
$GPGSA,A,3,02,06,12,17,23,,,,,,,,2.3,1.2,1.9*38
$GPGSV,3,1,09,06,67,039,28,02,54,316,32,17,36,155,18,05,34,246,*7A
$GPGSV,3,2,09,12,23,277,33,23,18,045,25,25,10,313,,19,00,000,27*75
$GPGSV,3,3,09,09,00,000,30*4A
$GPRMC,021852.999,A,3704.6551,N,12649.9955,E,000.0,179.2,161116,,,A*69
$GPVTG,179.2,T,,M,000.0,N,000.0,K,A*00
$GPGGA,021853.999,3704.6550,N,12649.9955,E,1,05,1.2,18.7,M,21.4,M,,0000*69
$GPGSA,A,3,02,06,12,17,23,,,,,,,,2.3,1.2,1.9*38
$GPGSV,3,1,09,06,67,039,29,02,54,316,31,17,36,155,18,05,34,246,*78
$GPGSV,3,2,09,12,23,277,33,23,18,045,25,25,10,313,,19,00,000,27*75
$GPGSV,3,3,09,09,00,000,30*4A
$GPRMC,021853.999,A,3704.6550,N,12649.9955,E,000.0,179.2,161116,,,A*69
$GPVTG,179.2,T,,M,000.0,N,000.0,K,A*00
$GPGGA,021854.999,3704.6550,N,12649.9955,E,1,05,1.2,18.7,M,21.4,M,,0000*6E
$GPGSA,A,3,02,06,12,17,23,,,,,,,,2.3,1.2,1.9*38
$GPGSV,3,1,09,06,67,039,28,02,54,316,30,17,36,155,17,05,34,246,*77
$GPGSV,3,2,09,12,23,277,34,23,18,045,25,25,10,313,,19,00,000,27*72
$GPGSV,3,3,09,09,00,000,29*42
$GPRMC,021854.999,A,3704.6550,N,12649.9955,E,000.0,179.2,161116,,,A*6E
$GPVTG,179.2,T,,M,000.0,N,000.0,K,A*00
$GPGGA,021855.999,3704.6550,N,12649.9954,E,1,04,4.7,18.8,M,21.4,M,,0000*60
$GPGSA,A,3,02,06,12,23,,,,,,,,,5.1,4.7,2.0*31
$GPGSV,3,1,09,06,67,039,29,02,54,316,31,17,36,155,17,05,34,246,*77
$GPGSV,3,2,09,12,23,277,34,23,18,045,25,25,10,313,,19,00,000,27*72
$GPGSV,3,3,09,09,00,000,29*42
$GPRMC,021855.999,A,3704.6550,N,12649.9954,E,000.0,179.2,161116,,,A*6E
$GPVTG,179.2,T,,M,000.0,N,000.0,K,A*00
$GPGGA,021856.999,3704.6550,N,12649.9954,E,1,04,4.7,18.9,M,21.4,M,,0000*62
$GPGSA,A,3,02,06,12,23,,,,,,,,,5.1,4.7,2.0*31
$GPGSV,3,1,09,06,67,039,28,02,54,316,31,17,36,155,17,05,34,246,29*7D
$GPGSV,3,2,09,12,23,277,34,23,18,045,25,25,10,313,,19,00,000,27*72
$GPGSV,3,3,09,09,00,000,29*42
$GPRMC,021856.999,A,3704.6550,N,12649.9954,E,000.0,179.2,161116,,,A*6D
$GPVTG,179.2,T,,M,000.0,N,000.0,K,A*00
$GPGGA,021857.999,3704.6549,N,12649.9954,E,1,05,1.2,19.0,M,21.4,M,,0000*62
$GPGSA,A,3,02,06,12,17,23,,,,,,,,2.3,1.2,1.9*38
$GPGSV,3,1,09,06,67,039,29,02,54,316,31,17,36,155,16,05,34,246,29*7D
$GPGSV,3,2,09,12,23,277,34,23,18,045,24,25,10,313,,19,00,000,27*73
$GPGSV,3,3,09,09,00,000,29*42
$GPRMC,021857.999,A,3704.6549,N,12649.9954,E,000.0,179.2,161116,,,A*64
$GPVTG,179.2,T,,M,000.0,N,000.0,K,A*00
$GPGGA,021858.999,3704.6549,N,12649.9954,E,1,05,1.2,19.0,M,21.4,M,,0000*6D
$GPGSA,A,3,02,06,12,17,23,,,,,,,,2.3,1.2,1.9*38
$GPGSV,3,1,09,06,67,039,28,02,54,316,31,17,36,155,16,05,34,246,28*7D
$GPGSV,3,2,09,12,23,277,34,23,18,045,24,25,10,313,,19,00,000,28*7C
$GPGSV,3,3,09,09,00,000,29*42
$GPRMC,021858.999,A,3704.6549,N,12649.9954,E,000.0,179.2,161116,,,A*6B
$GPVTG,179.2,T,,M,000.0,N,000.0,K,A*00
