$GPRMC,140113.0,A,4727.710492,N,12218.466890,W,50.2,181.1,230209,,,A*4C
$GPGSA,A,3,02,04,09,12,17,29,255,255,,,,,2.5,1.9,1.7*3A
$GPVTG,181.1,T,,M,50.2,N,93.0,K*64
$GPGSV,2,1,08,02,69,147,33,04,46,060,25,05,61,293,16,09,28,209,22*7F
$GPGSV,2,2,08,12,73,293,21,17,06,077,24,29,11,262,23,30,35,303,23*73
$GPGGA,140114.0,4727.695502,N,12218.466814,W,1,08,2.4,121.5,M,,,,*1F
$GPRMC,140114.0,A,4727.695502,N,12218.466814,W,54.4,180.5,230209,,,A*44
$GPGSA,A,3,02,04,12,17,29,255,255,255,,,,,3.0,2.4,1.8*04
$GPVTG,180.5,T,,M,54.4,N,100.7,K*5F
$PGRME,15.0,M,45.0,M,25.0,M*1C
$GPGSV,2,1,08,02,69,147,34,04,46,060,25,05,62,293,12,09,28,209,22*7F
$GPGSV,2,2,08,12,73,293,20,17,06,077,25,29,11,262,21,30,35,303,23*71
$GPGGA,140115.0,4727.679404,N,12218.466900,W,1,08,2.0,122.0,M,,,,*1D
$GPRMC,140115.0,A,4727.679404,N,12218.466900,W,58.1,181.1,230209,,,A*48
$GPGSA,A,3,02,04,05,12,17,29,255,255,,,,,2.6,2.0,1.5*3D
$GPVTG,181.1,T,,M,58.1,N,107.5,K*56
$GPGSV,2,1,08,02,69,147,33,04,46,060,25,05,62,293,12,09,28,209,21*7B
$GPGSV,2,2,08,12,73,293,22,17,06,077,26,29,11,262,20,30,35,303,19*78
$GPGGA,140116.0,4727.661782,N,12218.466895,W,1,08,1.5,122.0,M,,,,*11
$GPRMC,140116.0,A,4727.661782,N,12218.466895,W,62.9,180.7,230209,,,A*44
$GPGSA,A,3,02,04,09,12,17,29,30,255,,,,,2.0,1.5,1.3*06
$GPVTG,180.7,T,,M,62.9,N,116.6,K*53
$GPGSV,2,1,08,02,69,147,33,04,46,060,26,05,62,293,12,09,28,209,22*7B
$GPGSV,2,2,08,12,73,293,21,17,06,077,22,29,11,262,20,30,35,303,20*75
$GPGGA,140117.0,4727.643257,N,12218.467393,W,1,08,1.5,122.0,M,,,,*11
$GPRMC,140117.0,A,4727.643257,N,12218.467393,W,66.7,181.5,230209,,,A*4D
$GPGSA,A,3,02,04,09,12,17,30,255,255,,,,,2.1,1.5,1.3*3E
$GPVTG,181.5,T,,M,66.7,N,123.5,K*5F
$GPGSV,2,1,08,02,69,147,34,04,46,060,25,05,62,293,13,09,28,209,21*7D
$GPGSV,2,2,08,12,73,293,21,17,06,077,24,29,11,262,20,30,35,303,20*73
$GPGGA,140118.0,4727.623674,N,12218.467991,W,1,08,1.6,122.0,M,,,,*16
$GPRMC,140118.0,A,4727.623674,N,12218.467991,W,70.3,181.9,230209,,,A*46
$GPGSA,A,3,02,04,05,09,17,30,255,255,,,,,2.1,1.6,1.3*3B
$GPVTG,181.9,T,,M,70.3,N,130.2,K*55
$GPGSV,2,1,08,02,69,147,34,04,46,060,27,05,62,293,13,09,28,209,22*7C
$GPGSV,2,2,08,12,73,293,21,17,06,077,27,29,11,262,20,30,35,303,20*70
$GPGGA,140119.0,4727.602921,N,12218.468499,W,1,08,1.8,122.0,M,,,,*1F
$GPRMC,140119.0,A,4727.602921,N,12218.468499,W,74.3,181.8,230209,,,A*44
$GPGSA,A,3,02,04,09,17,30,255,255,255,,,,,2.4,1.8,1.6*02
$GPVTG,181.8,T,,M,74.3,N,137.7,K*52
$PGRME,25.0,M,55.0,M,25.0,M*1E
$GPGSV,2,1,08,02,69,147,34,04,46,060,27,05,62,293,15,09,28,209,21*79
$GPGSV,2,2,08,12,73,293,20,17,06,077,23,29,11,262,21,30,35,303,20*74
$GPGGA,140120.0,4727.580491,N,12218.468021,W,1,08,1.5,122.0,M,,,,*10
$GPRMC,140120.0,A,4727.580491,N,12218.468021,W,79.3,180.7,230209,,,A*45
$GPGSA,A,3,02,04,05,09,12,17,29,30,,,,,2.1,1.5,1.4*37
$GPVTG,180.7,T,,M,79.3,N,146.8,K*58
$GPGSV,2,1,08,02,69,147,34,04,46,060,27,05,62,293,15,09,28,209,20*78
$GPGSV,2,2,08,12,73,293,21,17,06,077,25,29,11,262,20,30,35,303,19*78
$GPGGA,140121.0,4727.557334,N,12218.468313,W,1,08,1.5,122.5,M,,,,*14
$GPRMC,140121.0,A,4727.557334,N,12218.468313,W,82.9,181.1,230209,,,A*4D
$GPGSA,A,3,02,04,09,12,17,29,30,255,,,,,2.1,1.5,1.3*07
$GPVTG,181.1,T,,M,82.9,N,153.5,K*58
$GPGSV,2,1,08,02,69,147,34,04,46,060,28,05,62,293,15,09,28,209,22*75
$GPGSV,2,2,08,12,73,293,21,17,06,077,25,29,11,262,21,30,35,303,19*79
$GPGGA,140122.0,4727.533051,N,12218.468750,W,1,08,1.6,122.5,M,,,,*15
$GPRMC,140122.0,A,4727.533051,N,12218.468750,W,86.8,181.1,230209,,,A*4A
$GPGSA,A,3,02,04,09,17,29,30,255,255,,,,,2.1,1.6,1.3*35
$GPVTG,181.1,T,,M,86.8,N,160.8,K*50
$GPGSV,2,1,08,02,69,147,34,04,46,060,28,05,62,293,14,09,28,209,22*74
$GPGSV,2,2,08,12,73,293,21,17,06,077,22,29,11,262,21,30,35,303,20*74
$GPGGA,140123.0,4727.507772,N,12218.468735,W,1,08,1.6,122.0,M,,,,*13
$GPRMC,140123.0,A,4727.507772,N,12218.468735,W,90.8,180.7,230209,,,A*49
$GPGSA,A,3,02,04,05,17,29,30,255,255,,,,,2.3,1.6,1.5*3D
$GPVTG,180.7,T,,M,90.8,N,168.2,K*52
$PGRME,15.0,M,45.0,M,25.0,M*1C
$GPGSV,2,1,08,02,69,147,34,04,46,060,28,05,62,293,14,09,28,209,22*74
$GPGSV,2,2,08,12,73,293,21,17,06,077,22,29,11,262,22,30,35,303,17*73
$GPGGA,140124.0,4727.481528,N,12218.469057,W,1,08,2.0,122.0,M,,,,*11
$GPRMC,140124.0,A,4727.481528,N,12218.469057,W,94.5,180.8,230209,,,A*48
$GPGSA,A,3,02,04,29,30,255,255,255,255,,,,,2.7,2.0,1.8*32
$GPVTG,180.8,T,,M,94.5,N,175.0,K*5A
$GPGSV,2,1,08,02,69,147,35,04,46,060,29,05,62,293,14,09,28,209,22*74
$GPGSV,2,2,08,12,73,293,21,17,06,077,22,29,11,262,22,30,35,303,17*73
$GPGGA,140125.0,4727.454086,N,12218.469309,W,1,08,2.4,122.0,M,,,,*15
$GPRMC,140125.0,A,4727.454086,N,12218.469309,W,98.2,180.7,230209,,,A*4C
$GPGSA,A,3,02,04,29,30,255,255,255,255,,,,,3.4,2.4,2.4*3B
$GPVTG,180.7,T,,M,98.2,N,182.0,K*56
$GPGSV,2,1,08,02,69,147,34,04,46,060,30,05,62,293,14,09,28,209,20*7F
$GPGSV,2,2,08,12,73,293,21,17,06,077,22,29,11,262,21,30,35,303,20*74
$GPGGA,140126.0,4727.425624,N,12218.469766,W,1,08,2.0,121.5,M,,,,*11
$GPRMC,140126.0,A,4727.425624,N,12218.469766,W,102.2,180.8,230209,,,A*77
$GPGSA,A,3,02,04,05,09,17,29,30,255,,,,,2.7,2.0,1.8*0A
$GPVTG,180.8,T,,M,102.2,N,189.2,K*62
$GPGSV,2,1,08,02,69,147,34,04,46,060,28,05,62,293,14,09,28,209,20*76
$GPGSV,2,2,08,12,73,293,21,17,06,077,22,29,11,262,21,30,35,303,18*7F
$GPGGA,140127.0,4727.396409,N,12218.470606,W,1,08,1.9,121.5,M,,,,*17
$GPRMC,140127.0,A,4727.396409,N,12218.470606,W,105.2,181.5,230209,,,A*70
$GPGSA,A,3,02,04,30,255,255,255,255,255,,,,,2.6,1.9,1.8*00
$GPVTG,181.5,T,,M,105.2,N,194.9,K*6E
$GPGSV,2,1,08,02,69,147,32,04,45,060,27,05,62,293,14,09,28,209,20*7C
$GPGSV,2,2,08,12,73,293,21,17,06,077,25,29,11,262,21,30,35,303,18*78
$GPGGA,140128.0,4727.365981,N,12218.471099,W,1,07,1.7,121.0,M,,,,*1C
$GPRMC,140128.0,A,4727.365981,N,12218.471099,W,109.1,181.0,230209,,,A*75
$GPGSA,A,3,02,04,05,17,255,255,255,,,,,,2.3,1.7,1.4*07
$GPVTG,181.0,T,,M,109.1,N,202.1,K*60
$GPGSV,2,1,08,02,69,147,33,04,45,060,26,05,62,293,14,09,28,209,20*7C
$GPGSV,2,2,08,12,73,293,16,17,06,077,22,29,11,262,20,30,35,303,18*7A
$GPGGA,140129.0,4727.334739,N,12218.471592,W,1,07,2.1,120.5,M,,,,*1B
$GPRMC,140129.0,A,4727.334739,N,12218.471592,W,112.5,181.0,230209,,,A*7D
$GPGSA,A,3,02,04,17,29,255,255,255,,,,,,2.8,2.1,1.8*0B
$GPVTG,181.0,T,,M,112.5,N,208.4,K*61
$GPGSV,2,1,08,02,69,147,34,04,45,060,26,05,62,293,15,09,28,209,20*7A
$GPGSV,2,2,08,12,73,293,17,17,06,077,22,29,11,262,20,30,35,303,15*76
$GPGGA,140130.0,4727.302239,N,12218.471612,W,1,08,1.9,120.5,M,,,,*1C
$GPRMC,140130.0,A,4727.302239,N,12218.471612,W,116.2,180.8,230209,,,A*74
$GPGSA,A,3,02,04,05,12,29,30,255,255,,,,,2.5,1.9,1.6*32
$GPVTG,180.8,T,,M,116.2,N,215.2,K*61
$GPGSV,2,1,08,02,69,147,33,04,45,060,26,05,62,293,17,09,28,209,20*7F
$GPGSV,2,2,08,12,73,293,18,17,06,077,22,29,11,262,21,30,35,303,15*78
$GPGGA,140131.0,4727.268961,N,12218.472034,W,1,08,2.0,120.5,M,,,,*1D
$GPRMC,140131.0,A,4727.268961,N,12218.472034,W,119.4,180.9,230209,,,A*77
$GPGSA,A,3,02,04,05,12,29,255,255,255,,,,,2.6,2.0,1.7*0B
$GPVTG,180.9,T,,M,119.4,N,221.1,K*6D
$GPGSV,2,1,08,02,69,147,33,04,45,060,25,05,62,293,17,09,28,209,20*7C
$GPGSV,2,2,08,12,73,293,18,17,06,077,22,29,11,262,21,30,35,303,15*78
$GPGGA,140132.0,4727.234971,N,12218.472925,W,1,08,3.1,120.0,M,,,,*1A
$GPRMC,140132.0,A,4727.234971,N,12218.472925,W,122.2,181.3,230209,,,A*70
$GPGSA,A,3,02,04,12,255,255,255,255,255,,,,,5.1,3.1,4.0*07
$GPVTG,181.3,T,,M,122.2,N,226.3,K*6D
$GPGSV,2,1,08,02,69,147,32,04,45,060,26,05,62,293,15,09,28,209,20*7C
$GPGSV,2,2,08,12,73,293,18,17,06,077,21,29,11,262,21,30,35,303,15*7B
$GPGGA,140133.0,4727.199793,N,12218.473422,W,1,07,2.0,120.0,M,,,,*19
$GPRMC,140133.0,A,4727.199793,N,12218.473422,W,125.8,181.1,230209,,,A*73
$GPGSA,A,3,02,04,05,12,17,255,255,,,,,,2.6,2.0,1.7*34
$GPVTG,181.1,T,,M,125.8,N,233.0,K*65
$GPGSV,2,1,08,02,69,147,32,04,45,060,25,05,62,293,17,09,28,209,20*7D
$GPGSV,2,2,08,12,73,293,18,17,06,077,21,29,11,262,21,30,35,303,15*7B
$GPGGA,140134.0,4727.163603,N,12218.473719,W,1,07,4.4,120.0,M,,,,*1A
$GPRMC,140134.0,A,4727.163603,N,12218.473719,W,129.3,181.0,230209,,,A*74
$GPGSA,A,3,02,04,05,255,255,255,255,,,,,,6.2,4.4,4.4*35
$GPVTG,181.0,T,,M,129.3,N,239.5,K*6C
$GPGSV,2,1,08,02,69,146,31,04,45,060,26,05,62,293,17,09,28,209,20*7C
$GPGSV,2,2,08,12,73,293,18,17,06,077,21,29,11,262,21,30,35,303,15*7B
$GPGGA,140135.0,4727.127064,N,12218.475152,W,1,07,4.1,119.5,M,,,,*19
$GPRMC,140135.0,A,4727.127064,N,12218.475152,W,131.8,181.7,230209,,,A*78
$GPGSA,A,3,02,04,255,255,255,255,255,,,,,,5.9,4.1,4.2*09
$GPVTG,181.7,T,,M,131.8,N,244.1,K*67
$GPGSV,2,1,08,02,69,146,29,04,45,060,24,05,62,293,16,09,28,209,20*76
$GPGSV,2,2,08,12,73,293,18,17,06,077,21,29,11,262,21,30,35,303,15*7B
$GPGGA,140136.0,4727.089415,N,12218.476284,W,1,07,5.7,119.5,M,,,,*11
$GPRMC,140136.0,A,4727.089415,N,12218.476284,W,134.7,181.7,230209,,,A*7D
$GPGSA,A,3,02,04,05,12,255,255,255,,,,,,18.6,5.7,17.7*0C
$GPVTG,181.7,T,,M,134.7,N,249.4,K*65
$GPGSV,2,1,08,02,69,146,30,04,45,060,25,05,62,293,16,09,28,209,20*7F
$GPGSV,2,2,08,12,73,293,18,17,06,077,21,29,11,262,21,30,35,303,15*7B
$GPGGA,140137.0,4727.051207,N,12218.477919,W,1,06,5.7,119.0,M,,,,*1A
$GPRMC,140137.0,A,4727.051207,N,12218.477919,W,137.2,182.0,230209,,,A*70
$GPGSA,A,3,02,04,12,255,255,255,,,,,,,18.6,5.7,17.7*09
$GPVTG,182.0,T,,M,137.2,N,254.1,K*6E
$GPGSV,2,1,08,02,69,146,31,04,45,060,26,05,62,293,16,09,28,209,12*7C
$GPGSV,2,2,08,12,73,293,16,17,06,077,21,29,11,262,17,30,35,303,15*70
$GPGGA,140138.0,4727.011781,N,12218.478919,W,1,05,5.7,119.0,M,,,,*16
$GPRMC,140138.0,A,4727.011781,N,12218.478919,W,140.4,182.0,230209,,,A*79
$GPGSA,A,3,02,04,12,255,255,,,,,,,,18.6,5.7,17.7*3B
$GPVTG,182.0,T,,M,140.4,N,260.0,K*6E
$GPGSV,2,1,08,02,,,30,04,,,26,05,,,13,09,,,12*7E
$GPGSV,2,2,08,12,,,16,17,,,21,29,,,17,30,,,15*7A
$GPGGA,140139.0,4726.971749,N,12218.480514,W,1,05,5.7,119.0,M,,,,*1B
$GPRMC,140139.0,A,4726.971749,N,12218.480514,W,143.1,182.2,230209,,,A*70
$GPGSA,A,3,02,04,05,255,255,,,,,,,,18.6,5.7,17.7*3D
$GPVTG,182.2,T,,M,143.1,N,265.1,K*6E
$GPGSV,2,1,08,02,69,146,29,04,45,060,25,05,62,293,13,09,28,209,12*73
$GPGSV,2,2,08,12,73,293,15,17,06,077,20,29,11,262,18,30,35,303,15*7D
$GPGGA,140140.0,4726.929795,N,12218.479623,W,1,05,4.0,119.0,M,,,,*1E
$GPRMC,140140.0,A,4726.929795,N,12218.479623,W,146.8,181.5,230209,,,A*7B
$GPGSA,A,3,02,04,12,29,255,,,,,,,,6.4,4.0,5.0*0D
$GPVTG,181.5,T,,M,146.8,N,271.9,K*6B
$GPGSV,2,1,08,02,69,146,29,04,45,060,25,05,62,293,15,09,28,209,12*75
$GPGSV,2,2,08,12,73,293,17,17,06,077,20,29,11,262,18,30,35,303,15*7F
$GPGGA,140141.0,4726.887825,N,12218.480604,W,1,05,3.5,118.5,M,,,,*1B
$GPRMC,140141.0,A,4726.887825,N,12218.480604,W,149.5,181.7,230209,,,A*78
$GPGSA,A,3,02,04,05,12,255,,,,,,,,5.6,3.5,4.4*05
$GPVTG,181.7,T,,M,149.5,N,276.9,K*6C
$GPGSV,2,1,08,02,69,146,31,04,45,060,23,05,62,293,16,09,28,209,12*79
$GPGSV,2,2,08,12,73,293,17,17,06,077,20,29,11,262,21,30,35,303,15*75
$GPGGA,140142.0,4726.844192,N,12218.479387,W,1,06,2.2,118.5,M,,,,*1F
$GPRMC,140142.0,A,4726.844192,N,12218.479387,W,153.0,181.1,230209,,,A*71
$GPGSA,A,3,02,04,05,17,29,255,,,,,,,2.8,2.2,1.7*02
$GPVTG,181.1,T,,M,153.0,N,283.3,K*64
$GPGSV,2,1,08,02,69,146,31,04,45,060,23,05,62,293,16,09,28,209,12*79
$GPGSV,2,2,08,12,73,293,16,17,06,077,21,29,11,262,16,30,35,303,15*71
$GPGGA,140143.0,4726.801180,N,12218.478879,W,1,07,2.0,118.5,M,,,,*14
$GPRMC,140143.0,A,4726.801180,N,12218.478879,W,153.0,180.3,230209,,,A*7A
$GPGSA,A,3,02,09,12,17,29,255,255,,,,,,2.6,2.0,1.6*36
$GPVTG,180.3,T,,M,153.0,N,283.4,K*60
$GPGSV,2,1,08,02,69,146,31,04,45,060,24,05,62,293,16,09,28,209,12*7E
$GPGSV,2,2,08,12,73,293,16,17,06,077,21,29,11,262,19,30,35,303,14*7F
$GPGGA,140144.0,4726.757376,N,12218.480111,W,1,07,2.1,118.5,M,,,,*15
$GPRMC,140144.0,A,4726.757376,N,12218.480111,W,156.2,181.1,230209,,,A*7E
$GPGSA,A,3,02,04,17,29,255,255,255,,,,,,2.6,2.1,1.6*0B
$GPVTG,181.1,T,,M,156.2,N,289.3,K*69
$GPGSV,2,1,08,02,69,146,32,04,45,060,30,05,62,293,13,09,28,209,12*7D
$GPGSV,2,2,08,12,73,293,16,17,06,077,21,29,11,262,17,30,35,303,14*71
$GPGGA,140145.0,4726.710603,N,12218.480322,W,1,07,2.0,118.5,M,,,,*13
$GPRMC,140145.0,A,4726.710603,N,12218.480322,W,161.6,181.2,230209,,,A*7A
$GPGSA,A,3,02,04,05,12,29,255,255,,,,,,2.6,2.0,1.6*38
$GPVTG,181.2,T,,M,161.6,N,299.3,K*6B
$GPGSV,2,1,08,02,69,146,31,04,45,060,29,05,62,293,13,09,28,209,12*76
$GPGSV,2,2,08,12,73,293,18,17,06,077,21,29,11,262,17,30,35,303,14*7F
$GPGGA,140146.0,4726.664121,N,12218.480845,W,1,07,2.0,118.5,M,,,,*1F
$GPRMC,140146.0,A,4726.664121,N,12218.480845,W,164.5,181.1,230209,,,A*73
$GPGSA,A,3,02,04,12,29,255,255,255,,,,,,2.7,2.0,1.8*00
$GPVTG,181.1,T,,M,164.5,N,304.7,K*6F
$GPGSV,2,1,08,02,69,146,31,04,45,060,26,05,62,293,15,09,28,209,13*7E
$GPGSV,2,2,08,12,73,293,18,17,06,077,21,29,11,262,20,30,35,303,14*7B
$GPGGA,140147.0,4726.616746,N,12218.480232,W,1,07,3.1,118.0,M,,,,*13
$GPRMC,140147.0,A,4726.616746,N,12218.480232,W,167.7,180.6,230209,,,A*7D
$GPGSA,A,3,02,04,05,09,29,255,255,,,,,,4.9,3.1,3.8*37
$GPVTG,180.6,T,,M,167.7,N,310.6,K*6C
$GPGSV,2,1,08,02,69,146,31,04,45,060,26,05,62,293,16,09,28,209,13*7D
$GPGSV,2,2,08,12,73,293,18,17,06,077,21,29,11,262,20,30,35,303,14*7B
$GPGGA,140148.0,4726.568864,N,12218.480287,W,1,07,2.0,118.0,M,,,,*17
$GPRMC,140148.0,A,4726.568864,N,12218.480287,W,170.4,180.6,230209,,,A*7C
$GPGSA,A,3,02,04,05,17,29,255,255,,,,,,2.5,2.0,1.5*3D
$GPVTG,180.6,T,,M,170.4,N,315.6,K*6C
$GPGSV,2,1,08,02,69,146,32,04,45,060,28,05,62,293,16,09,28,209,20*70
$GPGSV,2,2,08,12,73,293,18,17,06,077,21,29,11,262,17,30,35,303,13*78
$GPGGA,140149.0,4726.520418,N,12218.480534,W,1,07,1.9,118.0,M,,,,*18
$GPRMC,140149.0,A,4726.520418,N,12218.480534,W,172.6,180.5,230209,,,A*7A
$GPGSA,A,3,02,04,09,12,29,255,255,,,,,,2.6,1.9,1.6*3E
$GPVTG,180.5,T,,M,172.6,N,319.7,K*62
$GPGSV,2,1,08,02,69,146,32,04,45,060,30,05,62,293,18,09,28,209,19*7D
$GPGSV,2,2,08,12,73,293,17,17,06,077,21,29,11,262,18,30,35,303,13*78
$GPGGA,140150.0,4726.471849,N,12218.480785,W,1,07,2.0,118.0,M,,,,*1F
$GPRMC,140150.0,A,4726.471849,N,12218.480785,W,172.7,180.2,230209,,,A*71
$GPGSA,A,3,02,04,05,09,12,29,255,,,,,,2.6,2.0,1.7*02
$GPVTG,180.2,T,,M,172.7,N,319.9,K*6A
$GPGSV,2,1,08,02,69,146,31,04,45,060,31,05,62,293,19,09,28,209,21*75
$GPGSV,2,2,08,12,73,293,17,17,06,077,21,29,11,262,20,30,35,303,13*73
$GPGGA,140151.0,4726.422893,N,12218.480001,W,1,07,2.7,118.0,M,,,,*13
$GPRMC,140151.0,A,4726.422893,N,12218.480001,W,173.3,179.8,230209,,,A*73
$GPGSA,A,3,02,04,05,09,29,255,255,,,,,,4.3,2.7,3.3*31
$GPVTG,179.8,T,,M,173.3,N,321.0,K*61
$GPGSV,2,1,08,02,69,146,31,04,45,060,31,05,62,293,19,09,28,209,21*75
$GPGSV,2,2,08,12,73,293,14,17,06,077,21,29,11,262,20,30,35,303,13*70
$GPGGA,140152.0,4726.371709,N,12218.479131,W,1,07,3.1,118.5,M,,,,*1B
$GPRMC,140152.0,A,4726.371709,N,12218.479131,W,178.9,179.9,230209,,,A*79
$GPGSA,A,3,02,04,09,12,255,255,255,,,,,,4.7,3.1,3.5*0B
$GPVTG,179.9,T,,M,178.9,N,331.4,K*64
$GPGSV,2,1,08,02,69,146,32,04,45,060,31,05,62,293,19,09,28,209,17*73
$GPGSV,2,2,08,12,73,293,14,17,06,077,21,29,11,262,16,30,35,303,13*75
$GPGGA,140153.0,4726.319700,N,12218.477380,W,1,07,3.4,119.0,M,,,,*1A
$GPRMC,140153.0,A,4726.319700,N,12218.477380,W,182.3,179.2,230209,,,A*7D
$GPGSA,A,3,02,04,09,29,255,255,255,,,,,,5.1,3.4,3.7*03
$GPVTG,179.2,T,,M,182.3,N,337.5,K*67
$GPGSV,2,1,08,02,69,146,32,04,45,060,31,05,62,293,19,09,28,209,18*7C
$GPGSV,2,2,08,12,73,293,14,17,06,077,21,29,11,262,16,30,35,303,13*75
$GPGGA,140154.0,4726.267002,N,12218.473840,W,1,07,5.5,119.0,M,,,,*14
$GPRMC,140154.0,A,4726.267002,N,12218.473840,W,185.2,178.3,230209,,,A*72
$GPGSA,A,3,02,04,09,29,255,255,255,,,,,,7.7,5.5,5.4*05
$GPVTG,178.3,T,,M,185.2,N,343.0,K*67
$GPGSV,2,1,08,02,69,146,33,04,45,060,30,05,62,293,12,09,28,209,17*78
$GPGSV,2,2,08,12,73,293,14,17,06,077,21,29,11,262,17,30,35,303,*76
$GPGGA,140155.0,4726.214883,N,12218.471320,W,1,06,5.7,119.5,M,,,,*19
$GPRMC,140155.0,A,4726.214883,N,12218.471320,W,186.2,178.1,230209,,,A*78
$GPGSA,A,3,02,04,05,09,29,255,,,,,,,8.1,5.7,5.7*08
$GPVTG,178.1,T,,M,186.2,N,344.8,K*69
$GPGSV,2,1,08,02,69,146,33,04,45,060,29,05,62,293,12,09,28,209,19*7E
$GPGSV,2,2,08,12,73,293,14,17,06,077,21,29,11,262,18,30,35,303,*79
$GPGGA,140156.0,4726.162243,N,12218.467890,W,1,06,5.7,119.5,M,,,,*19
$GPRMC,140156.0,A,4726.162243,N,12218.467890,W,187.1,177.7,230209,,,A*73
$GPGSA,A,3,02,04,09,29,255,255,,,,,,,8.1,5.7,5.6*3E
$GPVTG,177.7,T,,M,187.1,N,346.5,K*6D
$GPGSV,2,1,08,02,69,146,33,04,45,060,28,05,62,293,12,09,28,209,19*7F
$GPGSV,2,2,08,12,73,293,14,17,06,077,16,29,11,262,18,30,35,303,16*7A
$GPGGA,140157.0,4726.109495,N,12218.463787,W,1,06,5.5,120.0,M,,,,*18
$GPRMC,140157.0,A,4726.109495,N,12218.463787,W,187.9,177.2,230209,,,A*72
$GPGSA,A,3,02,04,09,255,255,255,,,,,,,7.6,5.5,5.3*08
$GPVTG,177.2,T,,M,187.9,N,348.0,K*6B
$GPGSV,2,1,08,02,69,146,32,04,45,060,27,05,62,293,12,09,28,209,19*71
$GPGSV,2,2,08,12,73,293,14,17,06,077,16,29,11,262,15,30,35,303,16*77
$GPGGA,140158.0,4726.056933,N,12218.459622,W,1,06,2.8,120.5,M,,,,*15
$GPRMC,140158.0,A,4726.056933,N,12218.459622,W,188.3,177.0,230209,,,A*77
$GPGSA,A,3,02,04,09,29,255,255,,,,,,,5.2,2.8,4.3*3C
$GPVTG,177.0,T,,M,188.3,N,348.7,K*6B
$GPGSV,2,1,08,02,69,146,32,04,45,060,27,05,62,293,12,09,28,209,21*7A
$GPGSV,2,2,08,12,73,293,14,17,06,077,16,29,11,262,15,30,35,303,16*77
$GPGGA,140159.0,4726.003863,N,12218.454302,W,1,05,2.8,120.5,M,,,,*19
$GPRMC,140159.0,A,4726.003863,N,12218.454302,W,189.1,176.5,230209,,,A*7F
$GPGSA,A,3,02,04,09,255,255,,,,,,,,5.2,2.8,4.3*37
$GPVTG,176.5,T,,M,189.1,N,350.2,K*60
$GPGSV,2,1,08,02,69,146,32,04,45,060,28,05,62,293,12,09,28,209,19*7E
$GPGSV,2,2,08,12,73,293,14,17,06,077,16,29,11,262,15,30,35,303,21*73
$GPGGA,140200.0,4725.950161,N,12218.447542,W,1,05,2.8,121.0,M,,,,*15
$GPRMC,140200.0,A,4725.950161,N,12218.447542,W,190.5,175.9,230209,,,A*74
$GPGSA,A,3,02,04,09,255,255,,,,,,,,5.2,2.8,4.3*37
$GPVTG,175.9,T,,M,190.5,N,352.8,K*6B
$GPGSV,2,1,08,02,69,146,32,04,45,060,28,05,62,293,12,09,28,209,16*71
$GPGSV,2,2,08,12,73,293,16,17,06,077,,29,11,262,15,30,35,303,20*77
$GPGGA,140201.0,4725.902178,N,12218.451737,W,1,06,1.6,122.0,M,,,,*11
$GPRMC,140201.0,A,4725.902178,N,12218.451737,W,184.4,178.4,230209,,,A*79
$GPGSA,A,3,02,04,09,30,255,255,,,,,,,4.1,1.6,3.7*38
$GPVTG,178.4,T,,M,184.4,N,341.6,K*63
$GPGSV,2,1,08,02,69,146,32,04,45,060,27,05,62,293,12,09,28,209,16*7E
$GPGSV,2,2,08,12,73,293,16,17,06,077,21,29,11,262,18,30,35,303,22*7B
$GPGGA,140202.0,4725.854424,N,12218.457103,W,1,05,3.1,122.5,M,,,,*18
$GPRMC,140202.0,A,4725.854424,N,12218.457103,W,180.6,180.3,230209,,,A*75
$GPGSA,A,3,02,04,29,30,255,,,,,,,,5.5,3.1,4.5*0D
$GPVTG,180.3,T,,M,180.6,N,334.4,K*65
$GPGSV,2,1,08,02,69,146,33,04,45,060,28,05,62,293,12,09,28,209,16*70
$GPGSV,2,2,08,12,73,293,17,17,06,077,22,29,11,262,21,30,35,303,21*70
$GPGGA,140203.0,4725.804784,N,12218.458964,W,1,07,1.7,124.5,M,,,,*13
$GPRMC,140203.0,A,4725.804784,N,12218.458964,W,181.0,180.2,230209,,,A*78
$GPGSA,A,3,02,04,12,17,29,30,255,,,,,,2.5,1.7,1.8*03
$GPVTG,180.2,T,,M,181.0,N,335.2,K*64
$GPGSV,2,1,08,02,69,146,32,04,45,060,29,05,62,293,12,09,28,209,16*70
$GPGSV,2,2,08,12,73,293,19,17,06,077,23,29,11,262,18,30,35,303,22*76
$GPGGA,140204.0,4725.755121,N,12218.461247,W,1,07,1.9,126.0,M,,,,*1F
$GPRMC,140204.0,A,4725.755121,N,12218.461247,W,180.1,180.5,230209,,,A*7A
$GPGSA,A,3,02,04,12,17,29,30,255,,,,,,2.9,1.9,2.1*0B
$GPVTG,180.5,T,,M,180.1,N,333.6,K*61
$GPGSV,2,1,08,02,69,146,32,04,45,060,30,05,62,293,12,09,28,209,16*78
$GPGSV,2,2,08,12,73,293,22,17,06,077,22,29,11,262,18,30,35,303,22*7F
$GPGGA,140205.0,4725.705411,N,12218.463887,W,1,08,1.7,127.5,M,,,,*1C
$GPRMC,140205.0,A,4725.705411,N,12218.463887,W,179.9,180.9,230209,,,A*7E
$GPGSA,A,3,02,04,05,12,17,255,255,255,,,,,2.6,1.7,1.9*0C
$GPVTG,180.9,T,,M,179.9,N,333.2,K*67
$GPGSV,2,1,08,02,69,146,32,04,45,060,31,05,62,293,12,09,28,209,12*7D
$GPGSV,2,2,08,12,73,293,20,17,06,077,23,29,11,262,17,30,35,303,22*73
$GPGGA,140206.0,4725.655517,N,12218.466346,W,1,08,1.5,129.5,M,,,,*13
$GPRMC,140206.0,A,4725.655517,N,12218.466346,W,179.9,180.6,230209,,,A*72
$GPGSA,A,3,02,04,09,12,17,29,255,255,,,,,2.4,1.5,1.8*38
$GPVTG,180.6,T,,M,179.9,N,333.2,K*68
$GPGSV,2,1,08,02,69,146,33,04,45,060,32,05,62,293,12,09,28,209,12*7F
$GPGSV,2,2,08,12,73,293,21,17,06,077,24,29,11,262,17,30,35,303,22*75
$GPGGA,140207.0,4725.605856,N,12218.469208,W,1,08,2.2,131.5,M,,,,*16
$GPRMC,140207.0,A,4725.605856,N,12218.469208,W,180.1,180.6,230209,,,A*74
$GPGSA,A,3,02,04,12,17,29,255,255,255,,,,,2.9,2.2,1.9*0B
$GPVTG,180.6,T,,M,180.1,N,333.6,K*62
$GPGSV,2,1,08,02,69,146,33,04,45,060,33,05,62,293,12,09,28,209,12*7E
$GPGSV,2,2,08,12,73,293,23,17,06,077,25,29,11,262,18,30,35,303,22*79
$GPGGA,140208.0,4725.558633,N,12218.477300,W,1,08,2.1,135.0,M,,,,*1B
$GPRMC,140208.0,A,4725.558633,N,12218.477300,W,176.2,182.7,230209,,,A*72
$GPGSA,A,3,02,04,12,17,29,255,255,255,,,,,2.9,2.1,1.9*08
$GPVTG,182.7,T,,M,176.2,N,326.3,K*6A
$GPGSV,2,1,08,02,69,146,32,04,45,060,32,05,62,293,12,09,28,209,14*78
$GPGSV,2,2,08,12,73,293,21,17,06,077,24,29,11,262,18,30,35,303,22*7A
$GPGGA,140209.0,4725.510202,N,12218.482148,W,1,08,2.1,138.0,M,,,,*19
$GPRMC,140209.0,A,4725.510202,N,12218.482148,W,176.1,182.1,230209,,,A*78
$GPGSA,A,3,02,04,09,12,17,29,255,255,,,,,2.9,2.1,1.9*33
$GPVTG,182.1,T,,M,176.1,N,326.1,K*6D
$GPGSV,2,1,08,02,69,146,32,04,45,060,32,05,62,293,12,09,28,209,18*74
$GPGSV,2,2,08,12,73,293,23,17,06,077,24,29,11,262,20,30,35,303,22*73
$GPGGA,140210.0,4725.463001,N,12218.488208,W,1,08,2.3,141.5,M,,,,*11
$GPRMC,140210.0,A,4725.463001,N,12218.488208,W,173.3,183.2,230209,,,A*7C
$GPGSA,A,3,02,04,09,12,17,29,255,255,,,,,3.0,2.3,2.0*33
$GPVTG,183.2,T,,M,173.3,N,321.0,K*6E
$GPGSV,2,1,08,02,69,146,32,04,45,060,31,05,62,293,12,09,28,209,19*76
$GPGSV,2,2,08,12,73,293,23,17,06,077,23,29,11,262,18,30,35,303,22*7F
$GPGGA,140211.0,4725.416009,N,12218.493730,W,1,07,2.3,144.0,M,,,,*11
$GPRMC,140211.0,A,4725.416009,N,12218.493730,W,171.7,183.4,230209,,,A*73
$GPGSA,A,3,02,04,09,12,17,29,255,,,,,,3.2,2.3,2.1*02
$GPVTG,183.4,T,,M,171.7,N,318.0,K*64
$GPGSV,2,1,08,02,69,146,32,04,45,060,31,05,62,293,12,09,28,209,17*78
$GPGSV,2,2,08,12,73,293,23,17,06,077,23,29,11,262,19,30,35,303,17*78
$GPGGA,140212.0,4725.369260,N,12218.499307,W,1,07,1.8,147.0,M,,,,*11
$GPRMC,140212.0,A,4725.369260,N,12218.499307,W,170.9,183.4,230209,,,A*77
$GPGSA,A,3,02,04,09,12,17,29,30,,,,,,2.6,1.8,1.9*35
$GPVTG,183.4,T,,M,170.9,N,316.6,K*63
$GPGSV,2,1,08,02,69,146,33,04,45,060,31,05,62,293,12,09,28,209,17*79
$GPGSV,2,2,08,12,73,293,23,17,06,077,24,29,11,262,18,30,35,303,17*7E
$GPGGA,140213.0,4725.323015,N,12218.505815,W,1,07,1.8,149.5,M,,,,*19
$GPRMC,140213.0,A,4725.323015,N,12218.505815,W,170.2,183.6,230209,,,A*7D
$GPGSA,A,3,02,04,12,17,29,255,255,,,,,,2.6,1.8,1.9*3F
$GPVTG,183.6,T,,M,170.2,N,315.2,K*6D
$GPGSV,2,1,08,02,69,146,33,04,45,060,31,05,62,293,12,09,28,209,17*79
$GPGSV,2,2,08,12,73,293,24,17,06,077,23,29,11,262,18,30,35,303,17*7E
$GPGGA,140214.0,4725.276455,N,12218.511453,W,1,07,1.8,152.5,M,,,,*1E
$GPRMC,140214.0,A,4725.276455,N,12218.511453,W,169.4,183.6,230209,,,A*7E
$GPGSA,A,3,02,04,12,17,29,255,255,,,,,,2.6,1.8,1.9*3F
$GPVTG,183.6,T,,M,169.4,N,313.7,K*60
$GPGSV,2,1,08,02,69,146,32,04,45,060,32,05,62,293,12,09,28,209,17*7B
$GPGSV,2,2,08,12,73,293,25,17,06,077,22,29,11,262,18,30,35,303,17*7E
$GPGGA,140215.0,4725.230054,N,12218.516754,W,1,07,2.6,154.5,M,,,,*10
$GPRMC,140215.0,A,4725.230054,N,12218.516754,W,168.6,183.6,230209,,,A*78
$GPGSA,A,3,02,04,12,17,29,255,255,,,,,,3.9,2.6,2.9*3F
$GPVTG,183.6,T,,M,168.6,N,312.2,K*67
$GPGSV,2,1,08,02,69,146,32,04,45,060,31,05,62,293,12,09,27,209,17*77
$GPGSV,2,2,08,12,73,293,24,17,06,077,22,29,11,262,17,30,35,303,17*70
$GPGGA,140216.0,4725.184019,N,12218.522306,W,1,07,2.6,157.0,M,,,,*14
$GPRMC,140216.0,A,4725.184019,N,12218.522306,W,167.9,183.6,230209,,,A*7A
$GPGSA,A,3,02,04,12,17,29,255,255,,,,,,3.9,2.6,2.8*3E
$GPVTG,183.6,T,,M,167.9,N,310.9,K*6E
$GPGSV,2,1,08,02,69,146,31,04,45,060,31,05,62,293,12,09,27,209,17*74
$GPGSV,2,2,08,12,73,293,24,17,06,077,21,29,11,262,17,30,35,303,13*77
$GPGGA,140217.0,4725.138405,N,12218.528451,W,1,07,2.1,158.5,M,,,,*19
$GPRMC,140217.0,A,4725.138405,N,12218.528451,W,167.3,183.7,230209,,,A*71
$GPGSA,A,3,02,04,12,17,30,255,255,,,,,,3.2,2.1,2.4*36
$GPVTG,183.7,T,,M,167.3,N,309.9,K*6D
$GPGSV,2,1,08,02,69,146,32,04,45,060,31,05,62,293,12,09,27,209,17*77
$GPGSV,2,2,08,12,73,293,22,17,06,077,21,29,11,262,17,30,35,303,13*71
$GPGGA,140218.0,4725.092771,N,12218.534446,W,1,07,2.2,160.0,M,,,,*11
$GPRMC,140218.0,A,4725.092771,N,12218.534446,W,166.5,183.9,230209,,,A*7D
$GPGSA,A,3,02,04,12,17,255,255,255,,,,,,3.4,2.2,2.6*00
$GPVTG,183.9,T,,M,166.5,N,308.4,K*68
$GPGSV,2,1,08,02,69,146,32,04,45,060,32,05,62,293,14,09,27,209,15*70
$GPGSV,2,2,08,12,73,293,23,17,06,077,22,29,11,262,17,30,35,303,13*73
$GPGGA,140219.0,4725.047536,N,12218.540471,W,1,07,2.7,162.0,M,,,,*19
$GPRMC,140219.0,A,4725.047536,N,12218.540471,W,165.7,183.7,230209,,,A*7D
$GPGSA,A,3,02,04,09,12,17,255,255,,,,,,4.2,2.7,3.2*3A
$GPVTG,183.7,T,,M,165.7,N,306.9,K*64
$GPGSV,2,1,08,02,69,146,32,04,45,060,30,05,62,293,14,09,27,209,18*7F
$GPGSV,2,2,08,12,73,293,23,17,06,077,22,29,11,262,17,30,35,303,13*73
$GPGGA,140220.0,4725.001678,N,12218.544283,W,1,07,3.3,162.5,M,,,,*17
$GPRMC,140220.0,A,4725.001678,N,12218.544283,W,165.4,183.4,230209,,,A*73
$GPGSA,A,3,02,04,09,255,255,255,255,,,,,,5.0,3.3,3.7*3C
$GPVTG,183.4,T,,M,165.4,N,306.4,K*69
$GPGSV,2,1,08,02,69,146,31,04,45,060,29,05,62,293,14,09,27,209,18*74
$GPGSV,2,2,08,12,73,293,23,17,06,077,22,29,11,262,17,30,35,303,13*73
$GPGGA,140221.0,4724.955264,N,12218.546531,W,1,07,2.5,163.5,M,,,,*1C
$GPRMC,140221.0,A,4724.955264,N,12218.546531,W,166.6,182.6,230209,,,A*7C
$GPGSA,A,3,02,04,09,30,255,255,255,,,,,,3.8,2.5,2.8*0A
$GPVTG,182.6,T,,M,166.6,N,308.5,K*64
$GPGSV,2,1,08,02,69,146,31,04,45,060,28,05,62,293,14,09,27,209,18*75
$GPGSV,2,2,08,12,73,293,23,17,06,077,22,29,11,262,17,30,35,303,22*71
$GPGGA,140222.0,4724.907532,N,12218.545752,W,1,07,1.6,164.5,M,,,,*1F
$GPRMC,140222.0,A,4724.907532,N,12218.545752,W,167.9,181.5,230209,,,A*76
$GPGSA,A,3,02,04,09,30,255,255,255,,,,,,4.1,1.6,3.7*0A
$GPVTG,181.5,T,,M,167.9,N,311.0,K*67
$GPGSV,2,1,08,02,69,146,31,04,45,060,27,05,62,293,14,09,27,209,18*7A
$GPGSV,2,2,08,12,73,293,23,17,06,077,22,29,11,262,17,30,35,303,21*72
$GPGGA,140223.0,4724.860035,N,12218.545510,W,1,06,1.6,165.5,M,,,,*18
$GPRMC,140223.0,A,4724.860035,N,12218.545510,W,168.8,181.0,230209,,,A*7A
$GPGSA,A,3,02,04,09,30,255,255,,,,,,,4.1,1.6,3.7*38
$GPVTG,181.0,T,,M,168.8,N,312.6,K*69
$GPGSV,2,1,08,02,69,146,32,04,45,060,29,05,62,293,14,09,27,209,19*76
$GPGSV,2,2,08,12,73,293,23,17,06,077,22,29,11,262,17,30,35,303,21*72
$GPGGA,140224.0,4724.812932,N,12218.545887,W,1,06,1.6,166.5,M,,,,*14
$GPRMC,140224.0,A,4724.812932,N,12218.545887,W,169.4,180.8,230209,,,A*71
$GPGSA,A,3,02,04,09,255,255,255,,,,,,,4.1,1.6,3.7*09
$GPVTG,180.8,T,,M,169.4,N,313.8,K*62
$GPGSV,2,1,08,02,69,146,31,04,45,060,30,05,62,293,14,09,27,209,17*73
$GPGSV,2,2,08,12,73,293,23,17,06,077,22,29,11,262,17,30,35,303,21*72
$GPGGA,140225.0,4724.765504,N,12218.545731,W,1,06,1.6,167.0,M,,,,*15
$GPRMC,140225.0,A,4724.765504,N,12218.545731,W,170.4,180.5,230209,,,A*71
$GPGSA,A,3,02,04,09,255,255,255,,,,,,,4.1,1.6,3.7*09
$GPVTG,180.5,T,,M,170.4,N,315.7,K*6E
$GPGSV,2,1,08,02,69,146,31,04,45,060,30,05,62,293,14,09,27,209,17*73
$GPGSV,2,2,08,12,73,293,23,17,06,077,22,29,11,262,17,30,35,303,21*72
$GPGGA,140226.0,4724.717765,N,12218.546496,W,1,04,10.6,167.0,M,,,,*29
$GPRMC,140226.0,A,4724.717765,N,12218.546496,W,171.3,180.7,230209,,,A*7B
$GPGSA,A,3,02,04,255,255,,,,,,,,,10.6,10.6,1.0*35
$GPVTG,180.7,T,,M,171.3,N,317.3,K*6C
$GPGSV,2,1,08,02,69,146,31,04,45,060,31,05,62,293,13,09,27,209,15*77
$GPGSV,2,2,08,12,73,293,19,17,06,077,22,29,11,262,17,30,35,303,21*7B
$GPGGA,140227.0,4724.669075,N,12218.544806,W,1,04,10.6,167.5,M,,,,*24
$GPRMC,140227.0,A,4724.669075,N,12218.544806,W,172.5,180.0,230209,,,A*71
$GPGSA,A,3,02,04,09,255,,,,,,,,,10.6,10.6,1.0*0E
$GPVTG,180.0,T,,M,172.5,N,319.5,K*66
$GPGSV,2,1,08,02,69,146,31,04,45,060,30,05,62,293,13,09,27,209,16*75
$GPGSV,2,2,08,12,73,293,19,17,06,077,22,29,11,262,,30,35,303,21*7D
$GPGGA,140228.0,4724.620854,N,12218.543941,W,1,05,2.7,168.5,M,,,,*14
$GPRMC,140228.0,A,4724.620854,N,12218.543941,W,173.0,179.8,230209,,,A*77
$GPGSA,A,3,02,04,09,12,255,,,,,,,,4.1,2.7,3.1*0E
$GPVTG,179.8,T,,M,173.0,N,320.4,K*67
$GPGSV,2,1,08,02,69,146,31,04,45,060,30,05,62,293,13,09,27,209,17*74
$GPGSV,2,2,08,12,73,293,19,17,06,077,22,29,11,262,17,30,35,303,21*7B
$GPGGA,140229.0,4724.572969,N,12218.544152,W,1,05,2.7,169.0,M,,,,*17
$GPRMC,140229.0,A,4724.572969,N,12218.544152,W,173.3,179.9,230209,,,A*72
$GPGSA,A,3,02,04,09,12,255,,,,,,,,4.1,2.7,3.1*0E
$GPVTG,179.9,T,,M,173.3,N,320.9,K*68
$GPGSV,2,1,08,02,69,146,31,04,45,060,30,05,62,293,13,09,27,209,17*74
$GPGSV,2,2,08,12,73,293,17,17,06,077,22,29,11,262,17,30,35,303,21*75
$GPGGA,140230.0,4724.523947,N,12218.542261,W,1,04,2.7,170.0,M,,,,*1B
$GPRMC,140230.0,A,4724.523947,N,12218.542261,W,174.4,179.6,230209,,,A*78
$GPGSA,A,3,02,04,09,12,,,,,,,,,4.1,2.7,3.1*3C
$GPVTG,179.6,T,,M,174.4,N,323.0,K*6D
$GPGSV,2,1,08,02,69,146,31,04,45,060,31,05,62,293,13,09,27,209,17*75
$GPGSV,2,2,08,12,73,293,17,17,06,077,22,29,11,262,17,30,35,303,21*75
$GPGGA,140231.0,4724.474790,N,12218.541708,W,1,04,2.7,170.0,M,,,,*14
$GPRMC,140231.0,A,4724.474790,N,12218.541708,W,175.6,179.8,230209,,,A*7A
$GPGSA,A,3,02,04,255,255,,,,,,,,,4.1,2.7,3.1*36
$GPVTG,179.8,T,,M,175.6,N,325.2,K*64
$GPGSV,2,1,08,02,69,146,31,04,45,060,32,05,62,293,13,09,27,209,17*76
$GPGSV,2,2,08,12,73,293,17,17,06,077,13,29,11,262,17,30,35,303,21*77
$GPGGA,140232.0,4724.423631,N,12218.536900,W,1,05,5.1,170.5,M,,,,*1C
$GPRMC,140232.0,A,4724.423631,N,12218.536900,W,177.4,179.3,230209,,,A*7C
$GPGSA,A,3,02,04,12,29,255,,,,,,,,7.6,5.1,5.6*08
$GPVTG,179.3,T,,M,177.4,N,328.5,K*65
$GPGSV,2,1,08,02,69,146,32,04,45,060,31,05,62,293,15,09,27,209,17*70
$GPGSV,2,2,08,12,73,293,16,17,06,077,13,29,11,262,17,30,35,303,21*76
$GPGGA,140233.0,4724.372841,N,12218.533088,W,1,05,2.8,171.5,M,,,,*14
$GPRMC,140233.0,A,4724.372841,N,12218.533088,W,178.2,179.3,230209,,,A*72
$GPGSA,A,3,02,04,12,29,255,,,,,,,,3.7,2.8,2.3*01
$GPVTG,179.3,T,,M,178.2,N,330.1,K*61
$GPGSV,2,1,08,02,69,146,31,04,45,060,30,05,62,292,15,09,27,209,17*73
$GPGSV,2,2,08,12,73,293,16,17,06,077,13,29,11,262,17,30,35,303,21*76
$GPGGA,140234.0,4724.321574,N,12218.528743,W,1,05,2.8,172.0,M,,,,*12
$GPRMC,140234.0,A,4724.321574,N,12218.528743,W,179.1,179.2,230209,,,A*71
$GPGSA,A,3,02,04,29,255,255,,,,,,,,3.7,2.8,2.3*30
$GPVTG,179.2,T,,M,179.1,N,331.7,K*65
$GPGSV,2,1,08,02,69,146,32,04,45,060,29,05,62,292,15,09,27,209,17*78
$GPGSV,2,2,08,12,73,293,16,17,06,077,13,29,11,262,17,30,35,303,13*77
$GPGGA,140235.0,4724.270151,N,12218.524056,W,1,05,2.8,172.5,M,,,,*1F
$GPRMC,140235.0,A,4724.270151,N,12218.524056,W,180.1,179.2,230209,,,A*7F
$GPGSA,A,3,02,04,29,255,255,,,,,,,,3.7,2.8,2.3*30
$GPVTG,179.2,T,,M,180.1,N,333.6,K*60
$GPGSV,2,1,08,02,69,146,32,04,45,060,29,05,62,292,17,09,27,209,16*7B
$GPGSV,2,2,08,12,73,293,16,17,06,077,21,29,11,262,21,30,35,303,13*73
$GPGGA,140236.0,4724.219671,N,12218.520752,W,1,07,2.3,176.0,M,,,,*19
$GPRMC,140236.0,A,4724.219671,N,12218.520752,W,179.6,179.5,230209,,,A*77
$GPGSA,A,3,02,04,05,09,17,29,255,,,,,,3.2,2.3,2.1*04
$GPVTG,179.5,T,,M,179.6,N,332.6,K*67
$GPGSV,2,1,08,02,69,146,32,04,45,060,30,05,62,292,18,09,27,209,17*7D
$GPGSV,2,2,08,12,73,293,12,17,06,077,24,29,11,262,21,30,35,303,13*72
$GPGGA,140237.0,4724.170914,N,12218.522296,W,1,07,1.9,177.0,M,,,,*1F
$GPRMC,140237.0,A,4724.170914,N,12218.522296,W,178.9,180.3,230209,,,A*77
$GPGSA,A,3,02,04,05,09,12,255,255,,,,,,2.6,1.9,1.7*31
$GPVTG,180.3,T,,M,178.9,N,331.3,K*6F
$GPGSV,2,1,08,02,69,146,31,04,45,060,30,05,62,292,18,09,27,209,17*7E
$GPGSV,2,2,08,12,73,293,12,17,06,077,25,29,11,262,21,30,35,303,13*73
$GPGGA,140238.0,4724.120668,N,12218.521903,W,1,07,2.0,177.5,M,,,,*1A
$GPRMC,140238.0,A,4724.120668,N,12218.521903,W,179.8,180.2,230209,,,A*7C
$GPGSA,A,3,02,04,09,255,255,255,255,,,,,,2.6,2.0,1.6*3C
$GPVTG,180.2,T,,M,179.8,N,333.0,K*6F
$GPGSV,2,1,08,02,69,146,31,04,45,060,29,05,62,292,19,09,27,209,19*79
$GPGSV,2,2,08,12,73,293,12,17,06,077,25,29,11,262,21,30,35,303,13*73
$GPGGA,140239.0,4724.074925,N,12218.530292,W,1,07,3.1,181.0,M,,,,*12
$GPRMC,140239.0,A,4724.074925,N,12218.530292,W,176.5,182.6,230209,,,A*7C
$GPGSA,A,3,02,04,05,09,17,255,255,,,,,,4.0,3.1,2.5*3F
$GPVTG,182.6,T,,M,176.5,N,326.9,K*66
$GPGSV,2,1,08,02,69,146,32,04,45,060,29,05,62,292,19,09,27,209,16*75
$GPGSV,2,2,08,12,73,293,12,17,06,077,24,29,11,262,20,30,35,303,18*78
$GPGGA,140240.0,4724.025061,N,12218.530679,W,1,08,1.5,186.5,M,,,,*1B
$GPRMC,140240.0,A,4724.025061,N,12218.530679,W,176.3,182.7,230209,,,A*79
$GPGSA,A,3,02,04,05,09,17,29,30,255,,,,,2.0,1.5,1.3*00
$GPVTG,182.7,T,,M,176.3,N,326.5,K*6D
$GPGSV,2,1,08,02,69,146,33,04,45,060,28,05,62,292,19,09,27,209,18*7B
$GPGSV,2,2,08,12,73,293,14,17,06,077,24,29,11,262,20,30,35,303,19*7F
$GPGGA,140241.0,4723.975590,N,12218.533194,W,1,08,1.5,188.5,M,,,,*13
$GPRMC,140241.0,A,4723.975590,N,12218.533194,W,178.3,181.9,230209,,,A*7C
$GPGSA,A,3,02,04,05,09,12,30,255,255,,,,,2.0,1.5,1.4*3B
$GPVTG,181.9,T,,M,178.3,N,330.2,K*6E
$GPGSV,2,1,08,02,69,146,33,04,45,060,28,05,62,292,16,09,27,209,17*7B
$GPGSV,2,2,08,12,73,293,19,17,06,077,24,29,11,262,20,30,35,303,22*7A
$GPGGA,140242.0,4723.926432,N,12218.536679,W,1,08,1.5,189.5,M,,,,*1F
$GPRMC,140242.0,A,4723.926432,N,12218.536679,W,180.4,181.5,230209,,,A*7D
$GPGSA,A,3,02,04,05,09,12,30,255,255,,,,,2.1,1.5,1.5*3B
$GPVTG,181.5,T,,M,180.4,N,334.1,K*65
$GPGSV,2,1,08,02,69,146,33,04,45,060,28,05,62,292,17,09,27,209,17*7A
$GPGSV,2,2,08,12,73,293,17,17,06,077,24,29,11,262,20,30,35,303,20*76
$GPGGA,140243.0,4723.875957,N,12218.537886,W,1,08,2.6,191.0,M,,,,*14
$GPRMC,140243.0,A,4723.875957,N,12218.537886,W,181.8,181.3,230209,,,A*71
$GPGSA,A,3,02,04,05,09,12,30,255,255,,,,,5.3,2.6,4.6*38
$GPVTG,181.3,T,,M,181.8,N,336.7,K*6A
$GPGSV,2,1,08,02,69,146,32,04,45,060,28,05,62,292,19,09,27,209,16*74
$GPGSV,2,2,08,12,73,293,19,17,06,077,24,29,11,262,20,30,35,303,20*78
$GPGGA,140244.0,4723.825447,N,12218.539510,W,1,08,2.6,192.0,M,,,,*15
$GPRMC,140244.0,A,4723.825447,N,12218.539510,W,183.3,181.0,230209,,,A*79
$GPGSA,A,3,02,04,05,09,12,30,255,255,,,,,5.5,2.6,4.9*31
$GPVTG,181.0,T,,M,183.3,N,339.5,K*6D
$GPGSV,2,1,08,02,69,146,33,04,45,060,27,05,62,292,20,09,27,209,16*70
$GPGSV,2,2,08,12,73,293,20,17,06,077,24,29,11,262,20,30,35,303,17*76
$GPGGA,140245.0,4723.775010,N,12218.541779,W,1,08,2.6,193.0,M,,,,*1B
$GPRMC,140245.0,A,4723.775010,N,12218.541779,W,184.4,180.9,230209,,,A*7E
$GPGSA,A,3,02,04,05,09,12,30,255,255,,,,,5.3,2.6,4.6*38
$GPVTG,180.9,T,,M,184.4,N,341.6,K*69
$GPGSV,2,1,08,02,69,146,33,04,45,060,27,05,62,292,20,09,27,209,16*70
$GPGSV,2,2,08,12,73,293,19,17,06,077,24,29,11,262,20,30,35,303,20*78
$GPGGA,140246.0,4723.724190,N,12218.544434,W,1,08,2.5,193.0,M,,,,*19
$GPRMC,140246.0,A,4723.724190,N,12218.544434,W,185.7,181.0,230209,,,A*75
$GPGSA,A,3,02,04,05,12,30,255,255,255,,,,,5.4,2.5,4.7*06
$GPVTG,181.0,T,,M,185.7,N,343.9,K*6E
$GPGSV,2,1,08,02,69,144,33,04,45,060,27,05,62,292,17,09,27,209,16*76
$GPGSV,2,2,08,12,73,293,17,17,05,077,24,29,11,262,20,30,35,303,20*75
$GPGGA,140247.0,4723.670539,N,12218.539983,W,1,07,2.2,195.5,M,,,,*1F
$GPRMC,140247.0,A,4723.670539,N,12218.539983,W,188.0,179.8,230209,,,A*7D
$GPGSA,A,3,02,04,05,09,12,29,30,,,,,,3.7,2.2,3.0*34
$GPVTG,179.8,T,,M,188.0,N,348.2,K*6B
$GPGSV,2,1,08,02,69,144,33,04,45,060,28,05,62,292,22,09,27,209,16*7F
$GPGSV,2,2,08,12,73,293,17,17,05,077,24,29,11,262,20,30,35,303,20*75
$GPGGA,140248.0,4723.619006,N,12218.542186,W,1,07,2.1,196.0,M,,,,*12
$GPRMC,140248.0,A,4723.619006,N,12218.542186,W,188.8,180.3,230209,,,A*70
$GPGSA,A,3,02,04,05,12,30,255,255,,,,,,3.6,2.1,2.9*3C
$GPVTG,180.3,T,,M,188.8,N,349.7,K*6A
$GPGSV,2,1,08,02,69,144,33,04,45,060,27,05,62,292,21,09,27,209,15*70
$GPGSV,2,2,08,12,73,293,16,17,05,077,15,29,11,262,20,30,35,303,19*7C
$GPGGA,140249.0,4723.567510,N,12218.544716,W,1,08,1.8,197.5,M,,,,*13
$GPRMC,140249.0,A,4723.567510,N,12218.544716,W,188.6,180.7,230209,,,A*7A
$GPGSA,A,3,02,04,05,09,12,17,30,255,,,,,3.0,1.8,2.4*00
$GPVTG,180.7,T,,M,188.6,N,349.3,K*64
$GPGSV,2,1,08,02,69,144,33,04,45,060,26,05,62,292,21,09,27,209,17*73
$GPGSV,2,2,08,12,73,293,16,17,05,077,15,29,11,262,,30,35,303,18*7F
$GPGGA,140250.0,4723.514769,N,12218.544952,W,1,08,2.0,198.5,M,,,,*19
$GPRMC,140250.0,A,4723.514769,N,12218.544952,W,189.5,180.6,230209,,,A*77
$GPGSA,A,3,02,04,09,30,255,255,255,255,,,,,4.2,2.0,3.6*3F
$GPVTG,180.6,T,,M,189.5,N,350.9,K*65
$GPGSV,2,1,08,02,69,144,32,04,45,060,28,05,62,292,21,09,27,209,17*7C
$GPGSV,2,2,08,12,73,293,16,17,05,077,15,29,11,262,17,30,35,303,19*78
$GPGGA,140251.0,4723.461971,N,12218.545400,W,1,08,2.0,199.5,M,,,,*16
$GPRMC,140251.0,A,4723.461971,N,12218.545400,W,190.3,180.5,230209,,,A*74
$GPGSA,A,3,02,04,09,30,255,255,255,255,,,,,4.2,2.0,3.6*3F
$GPVTG,180.5,T,,M,190.3,N,352.5,K*66
$GPGSV,2,1,08,02,69,144,33,04,45,060,23,05,62,292,21,09,27,209,17*76
$GPGSV,2,2,08,12,73,293,16,17,05,077,15,29,11,262,19,30,35,303,22*7E
$GPGGA,140252.0,4723.408355,N,12218.544188,W,1,08,1.6,200.0,M,,,,*11
$GPRMC,140252.0,A,4723.408355,N,12218.544188,W,192.4,179.9,230209,,,A*7F
$GPGSA,A,3,02,04,09,30,255,255,255,255,,,,,4.0,1.6,3.7*39
$GPVTG,179.9,T,,M,192.4,N,356.3,K*6B
$GPGSV,2,1,08,02,69,144,33,04,45,060,24,05,62,292,21,09,27,209,17*71
$GPGSV,2,2,08,12,73,293,16,17,05,077,15,29,11,262,19,30,35,303,21*7D
$GPGGA,140253.0,4723.354558,N,12218.543051,W,1,08,1.6,201.5,M,,,,*13
$GPRMC,140253.0,A,4723.354558,N,12218.543051,W,193.2,180.0,230209,,,A*71
$GPGSA,A,3,02,04,09,30,255,255,255,255,,,,,4.0,1.6,3.7*39
$GPVTG,180.0,T,,M,193.2,N,357.8,K*69
$GPGSV,2,1,08,02,69,144,32,04,45,060,31,05,62,292,21,09,27,209,17*74
$GPGSV,2,2,08,12,73,293,12,17,05,077,,29,11,262,19,30,35,303,21*7D
$GPGGA,140254.0,4723.300181,N,12218.543534,W,1,07,3.1,201.5,M,,,,*19
$GPRMC,140254.0,A,4723.300181,N,12218.543534,W,194.9,180.2,230209,,,A*7F
$GPGSA,A,3,02,04,12,255,255,255,255,,,,,,6.5,3.1,5.7*34
$GPVTG,180.2,T,,M,194.9,N,361.0,K*6A
$GPGSV,2,1,08,02,69,144,32,04,45,060,27,05,62,292,21,09,27,209,14*70
$GPGSV,2,2,08,12,73,293,12,17,05,077,18,29,11,262,19,30,35,303,21*74
$GPGGA,140255.0,4723.245650,N,12218.542975,W,1,07,3.2,202.0,M,,,,*1E
$GPRMC,140255.0,A,4723.245650,N,12218.542975,W,195.8,180.0,230209,,,A*7F
$GPGSA,A,3,02,04,09,255,255,255,255,,,,,,6.9,3.2,6.2*37
$GPVTG,180.0,T,,M,195.8,N,362.7,K*6C
$GPGSV,2,1,08,02,69,144,31,04,45,060,28,05,62,292,21,09,27,209,17*7F
$GPGSV,2,2,08,12,73,292,12,17,05,077,17,29,11,262,19,30,35,303,21*7A
$GPGGA,140256.0,4723.190634,N,12218.541245,W,1,05,2.7,203.0,M,,,,*18
$GPRMC,140256.0,A,4723.190634,N,12218.541245,W,197.4,179.6,230209,,,A*70
$GPGSA,A,3,02,04,09,255,255,,,,,,,,4.1,2.7,3.0*3E
$GPVTG,179.6,T,,M,197.4,N,365.6,K*64
$GPGSV,2,1,08,02,69,144,30,04,45,060,28,05,62,292,21,09,27,209,17*7E
$GPGSV,2,2,08,12,73,292,12,17,05,077,19,29,11,262,19,30,35,303,21*74
$GPGGA,140257.0,4723.135879,N,12218.540712,W,1,06,5.6,205.5,M,,,,*11
$GPRMC,140257.0,A,4723.135879,N,12218.540712,W,198.6,179.6,230209,,,A*72
$GPGSA,A,3,02,04,09,17,255,255,,,,,,,6.5,5.6,3.2*3A
$GPVTG,179.6,T,,M,198.6,N,367.8,K*65
$GPGSV,2,1,08,02,69,144,30,04,45,060,29,05,62,292,21,09,27,209,16*7E
$GPGSV,2,2,08,12,73,292,12,17,05,077,18,29,11,262,19,30,35,303,21*75
$GPGGA,140258.0,4723.080505,N,12218.540159,W,1,06,5.8,207.5,M,,,,*12
$GPRMC,140258.0,A,4723.080505,N,12218.540159,W,200.0,179.5,230209,,,A*7A
$GPGSA,A,3,02,04,09,17,255,255,,,,,,,6.7,5.8,3.3*37
$GPVTG,179.5,T,,M,200.0,N,370.4,K*68
$GPGSV,2,1,08,02,70,144,31,04,45,060,30,05,62,292,21,09,27,209,16*7F
$GPGSV,2,2,08,12,73,292,12,17,05,077,19,29,11,262,19,30,35,303,21*74
$GPGGA,140259.0,4723.025803,N,12218.542910,W,1,06,5.3,209.0,M,,,,*10
$GPRMC,140259.0,A,4723.025803,N,12218.542910,W,200.7,180.2,230209,,,A*7E
$GPGSA,A,3,02,04,17,255,255,255,,,,,,,5.7,5.3,2.1*07
$GPVTG,180.2,T,,M,200.7,N,371.7,K*6C
$GPGSV,2,1,08,02,70,144,30,04,45,060,30,05,62,292,21,09,27,209,16*7E
$GPGSV,2,2,08,12,73,292,16,17,05,077,18,29,11,262,19,30,35,303,21*71
$GPGGA,140300.0,4722.971464,N,12218.547135,W,1,05,5.3,210.5,M,,,,*1D
$GPRMC,140300.0,A,4722.971464,N,12218.547135,W,200.7,180.9,230209,,,A*76
$GPGSA,A,3,02,04,17,255,255,,,,,,,,5.7,5.3,2.1*35
$GPVTG,180.9,T,,M,200.7,N,371.6,K*66
$GPGSV,2,1,08,02,70,144,29,04,45,060,30,05,62,292,21,09,27,209,15*75
$GPGSV,2,2,08,12,73,292,17,17,05,077,17,29,11,262,19,30,35,303,21*7F
$GPGGA,140301.0,4722.916193,N,12218.549740,W,1,05,4.4,212.0,M,,,,*1B
$GPRMC,140301.0,A,4722.916193,N,12218.549740,W,201.2,181.0,230209,,,A*7D
$GPGSA,A,3,02,04,09,12,17,,,,,,,,5.7,4.4,3.7*3E
$GPVTG,181.0,T,,M,201.2,N,372.7,K*68
$GPGSV,2,1,08,02,70,144,30,04,45,059,32,05,63,292,21,09,27,209,15*74
$GPGSV,2,2,08,12,73,292,24,17,05,077,19,29,11,262,19,30,35,303,21*71
$GPGGA,140302.0,4722.861456,N,12218.554849,W,1,05,3.8,214.0,M,,,,*12
$GPRMC,140302.0,A,4722.861456,N,12218.554849,W,203.3,180.8,230209,,,A*73
$GPGSA,A,3,02,04,12,17,255,,,,,,,,5.6,3.8,4.0*0F
$GPVTG,180.8,T,,M,203.3,N,376.4,K*65
$GPGSV,2,1,08,02,70,144,29,04,45,059,30,05,63,292,21,09,27,209,14*7F
$GPGSV,2,2,08,12,73,292,25,17,05,077,19,29,11,262,19,30,35,303,13*71
$GPGGA,140303.0,4722.806852,N,12218.560145,W,1,06,2.5,215.5,M,,,,*13
$GPRMC,140303.0,A,4722.806852,N,12218.560145,W,204.3,180.6,230209,,,A*70
$GPGSA,A,3,02,04,09,12,30,255,,,,,,,4.1,2.5,3.3*0D
$GPVTG,180.6,T,,M,204.3,N,378.5,K*63
$GPGSV,2,1,08,02,70,144,27,04,45,059,29,05,63,292,16,09,27,209,14*7D
$GPGSV,2,2,08,12,73,292,23,17,05,077,22,29,11,262,19,30,35,303,13*7F
$GPGGA,140304.0,4722.751469,N,12218.564752,W,1,06,2.2,217.5,M,,,,*1C
$GPRMC,140304.0,A,4722.751469,N,12218.564752,W,205.4,181.0,230209,,,A*7B
$GPGSA,A,3,02,04,12,17,255,255,,,,,,,3.5,2.2,2.7*32
$GPVTG,181.0,T,,M,205.4,N,380.4,K*64
$GPGSV,2,1,08,02,70,144,25,04,45,059,28,05,63,292,16,09,27,209,14*7E
$GPGSV,2,2,08,12,73,292,24,17,05,077,22,29,11,262,19,30,35,303,13*78
$GPGGA,140305.0,4722.696038,N,12218.569937,W,1,06,2.2,220.0,M,,,,*16
$GPRMC,140305.0,A,4722.696038,N,12218.569937,W,206.0,181.1,230209,,,A*76
$GPGSA,A,3,02,04,12,17,255,255,,,,,,,3.3,2.2,2.5*36
$GPVTG,181.1,T,,M,206.0,N,381.6,K*61
$GPGSV,2,1,08,02,70,144,22,04,45,059,27,05,63,292,16,09,27,209,17*75
$GPGSV,2,2,08,12,73,292,23,17,05,077,21,29,11,262,19,30,35,303,13*7C
$GPGGA,140306.0,4722.640486,N,12218.573900,W,1,06,2.0,223.5,M,,,,*14
$GPRMC,140306.0,A,4722.640486,N,12218.573900,W,206.4,180.9,230209,,,A*7D
$GPGSA,A,3,02,04,09,12,17,255,,,,,,,2.8,2.0,1.9*0A
$GPVTG,180.9,T,,M,206.4,N,382.3,K*6A
$GPGSV,2,1,08,02,70,144,24,04,45,059,28,05,63,292,16,09,27,209,17*7C
$GPGSV,2,2,08,12,73,292,24,17,05,077,22,29,11,262,19,30,35,303,13*78
$GPGGA,140307.0,4722.584132,N,12218.578416,W,1,06,2.0,226.0,M,,,,*15
$GPRMC,140307.0,A,4722.584132,N,12218.578416,W,208.5,181.0,230209,,,A*7B
$GPGSA,A,3,02,04,12,17,30,255,,,,,,,2.8,2.0,1.9*00
$GPVTG,181.0,T,,M,208.5,N,386.2,K*68
$GPGSV,2,1,08,02,70,144,30,04,45,059,24,05,63,292,13,09,27,209,17*70
$GPGSV,2,2,08,12,73,292,22,17,05,077,27,29,12,262,,30,35,303,21*71
$GPGGA,140308.0,4722.525547,N,12218.580000,W,1,06,1.9,226.5,M,,,,*1C
$GPRMC,140308.0,A,4722.525547,N,12218.580000,W,211.0,180.5,230209,,,A*74
$GPGSA,A,3,02,04,12,255,30,255,,,,,,,2.6,1.9,1.7*3E
$GPVTG,180.5,T,,M,211.0,N,390.7,K*63
$GPGSV,2,1,08,02,70,144,30,04,45,059,26,05,63,292,13,09,27,209,17*72
$GPGSV,2,2,08,12,73,292,22,17,05,077,26,29,12,262,18,30,35,303,16*7D
$GPGGA,140309.0,4722.466171,N,12218.580166,W,1,06,2.4,226.5,M,,,,*15
$GPRMC,140309.0,A,4722.466171,N,12218.580166,W,212.6,180.4,230209,,,A*77
$GPGSA,A,3,02,04,255,30,255,255,,,,,,,3.4,2.4,2.4*02
$GPVTG,180.4,T,,M,212.6,N,393.8,K*6B
$GPGSV,2,1,08,02,70,144,28,04,45,059,24,05,63,292,13,09,27,209,17*79
$GPGSV,2,2,08,12,73,292,22,17,05,077,28,29,12,262,16,30,35,303,16*7D
$GPGGA,140310.0,4722.406683,N,12218.580865,W,1,06,2.6,226.5,M,,,,*19
$GPRMC,140310.0,A,4722.406683,N,12218.580865,W,213.7,180.5,230209,,,A*78
$GPGSA,A,3,02,04,255,255,255,255,,,,,,,3.6,2.6,2.4*33
$GPVTG,180.5,T,,M,213.7,N,395.7,K*63
$GPGSV,2,1,08,02,70,144,27,04,45,059,21,05,63,292,13,09,27,209,17*73
$GPGSV,2,2,08,12,73,292,22,17,05,077,27,29,12,262,16,30,35,303,16*72
$GPGGA,140311.0,4722.347156,N,12218.581795,W,1,06,2.5,226.0,M,,,,*12
$GPRMC,140311.0,A,4722.347156,N,12218.581795,W,214.5,180.6,230209,,,A*73
$GPGSA,A,3,02,04,255,255,255,255,,,,,,,3.4,2.5,2.3*35
$GPVTG,180.6,T,,M,214.5,N,397.2,K*62
$GPGSV,2,1,08,02,70,144,27,04,45,059,20,05,63,292,18,09,27,209,17*79
$GPGSV,2,2,08,12,73,292,22,17,05,077,28,29,12,262,16,30,35,303,13*78
$GPGGA,140312.0,4722.286381,N,12218.580815,W,1,07,3.0,226.0,M,,,,*16
$GPRMC,140312.0,A,4722.286381,N,12218.580815,W,216.6,180.1,230209,,,A*74
$GPGSA,A,3,02,04,05,255,30,255,255,,,,,,4.1,3.0,2.7*03
$GPVTG,180.1,T,,M,216.6,N,401.2,K*6C
$GPGSV,2,1,08,02,70,144,26,04,45,059,20,05,63,292,18,09,27,209,17*78
$GPGSV,2,2,08,12,73,292,22,17,05,077,26,29,12,262,16,30,35,303,19*7C
$GPGGA,140313.0,4722.224528,N,12218.577747,W,1,06,3.1,225.5,M,,,,*1C
$GPRMC,140313.0,A,4722.224528,N,12218.577747,W,218.0,179.7,230209,,,A*70
$GPGSA,A,3,02,255,30,255,255,255,,,,,,,4.1,3.1,2.7*31
$GPVTG,179.7,T,,M,218.0,N,403.6,K*62
$GPGSV,2,1,08,02,70,144,26,04,45,059,20,05,63,292,18,09,27,209,17*78
$GPGSV,2,2,08,12,73,292,22,17,05,077,24,29,12,262,16,30,35,303,19*7E
$GPGGA,140314.0,4722.162873,N,12218.575097,W,1,05,3.1,225.5,M,,,,*12
$GPRMC,140314.0,A,4722.162873,N,12218.575097,W,219.1,179.3,230209,,,A*79
$GPGSA,A,3,02,255,30,255,255,,,,,,,,4.2,3.1,2.8*0F
$GPVTG,179.3,T,,M,219.1,N,405.8,K*6E
$GPGSV,2,1,08,02,70,144,26,04,45,059,20,05,63,292,18,09,27,209,17*78
$GPGSV,2,2,08,12,73,292,22,17,05,077,26,29,12,262,16,30,35,303,19*7C
$GPGGA,140315.0,4722.100944,N,12218.575333,W,1,04,2.9,225.0,M,,,,*12
$GPRMC,140315.0,A,4722.100944,N,12218.575333,W,221.1,179.7,230209,,,A*7B
$GPGSA,A,3,02,04,255,255,,,,,,,,,3.8,2.9,2.5*33
$GPVTG,179.7,T,,M,221.1,N,409.4,K*61
$GPGSV,2,1,08,02,70,144,27,04,45,059,21,05,63,292,13,09,27,209,17*73
$GPGSV,2,2,08,12,73,292,22,17,05,077,27,29,12,262,16,30,35,303,14*70
$GPGGA,140316.0,4722.037791,N,12218.572019,W,1,04,3.0,224.5,M,,,,*12
$GPRMC,140316.0,A,4722.037791,N,12218.572019,W,223.6,179.0,230209,,,A*75
$GPGSA,A,3,02,04,05,255,,,,,,,,,3.9,3.0,2.5*0D
$GPVTG,179.0,T,,M,223.6,N,414.2,K*69
$GPGSV,2,1,08,02,70,144,27,04,45,059,21,05,63,292,22,09,27,209,17*71
$GPGSV,2,2,08,12,73,292,22,17,05,077,27,29,12,262,16,30,35,303,14*70
$GPGGA,140317.0,4721.975973,N,12218.572486,W,1,04,3.1,224.5,M,,,,*1E
$GPRMC,140317.0,A,4721.975973,N,12218.572486,W,223.9,179.3,230209,,,A*74
$GPGSA,A,3,02,04,05,255,,,,,,,,,4.1,3.1,2.6*00
$GPVTG,179.3,T,,M,223.9,N,414.7,K*60
$GPGSV,2,1,08,02,70,144,26,04,45,059,21,05,63,292,18,09,27,209,17*79
$GPGSV,2,2,08,12,73,292,22,17,05,077,28,29,12,262,16,30,35,303,14*7F
$GPGGA,140318.0,4721.913239,N,12218.570485,W,1,04,3.2,224.0,M,,,,*13
$GPRMC,140318.0,A,4721.913239,N,12218.570485,W,224.6,179.1,230209,,,A*75
$GPGSA,A,3,02,05,255,30,,,,,,,,,4.3,3.2,2.7*07
$GPVTG,179.1,T,,M,224.6,N,415.9,K*65
$GPGSV,2,1,08,02,70,144,27,04,45,059,20,05,63,292,17,09,27,209,*70
$GPGSV,2,2,08,12,73,292,13,17,05,077,28,29,12,262,16,30,35,303,14*7D
$GPGSV,2,1,08,02,70,144,26,04,45,059,22,05,63,292,17,09,27,209,*73
$GPGSV,2,2,08,12,73,292,13,17,05,077,28,29,12,262,,30,35,303,14*7A
$GPGGA,140320.0,4721.786135,N,12218.571657,W,1,04,3.3,223.5,M,,,,*1A
$GPRMC,140320.0,A,4721.786135,N,12218.571657,W,227.7,179.9,230209,,,A*75
$GPGSA,A,3,02,04,255,255,,,,,,,,,4.3,3.3,2.7*36
$GPVTG,179.9,T,,M,227.7,N,421.7,K*66
$GPGSV,2,1,08,02,70,144,25,04,45,059,22,05,63,292,17,09,27,209,16*77
$GPGSV,2,2,08,12,73,292,13,17,05,077,26,29,12,262,,30,35,303,14*74
$GPGGA,140321.0,4721.722350,N,12218.571968,W,1,04,2.9,223.0,M,,,,*19
$GPRMC,140321.0,A,4721.722350,N,12218.571968,W,228.8,180.0,230209,,,A*77
$GPGSA,A,3,02,04,255,255,,,,,,,,,4.0,2.9,2.7*3E
$GPVTG,180.0,T,,M,228.8,N,423.7,K*6B
$GPGSV,2,1,08,02,70,144,24,04,45,059,22,05,63,292,17,09,27,209,16*76
$GPGSV,2,2,08,12,73,292,13,17,05,077,26,29,12,262,,30,35,303,14*74
$GPGGA,140322.0,4721.658475,N,12218.572406,W,1,04,4.6,223.0,M,,,,*19
$GPRMC,140322.0,A,4721.658475,N,12218.572406,W,229.7,180.2,230209,,,A*72
$GPGSA,A,3,02,04,255,255,,,,,,,,,4.7,4.6,0.9*3C
$GPVTG,180.2,T,,M,229.7,N,425.5,K*63
$GPGSV,2,1,08,02,70,144,25,04,45,059,21,05,63,292,18,09,27,209,18*75
$GPGSV,2,2,08,12,73,292,11,17,05,077,26,29,12,262,,30,35,303,14*76
$GPGGA,140323.0,4721.594789,N,12218.573990,W,1,05,3.2,222.5,M,,,,*1E
$GPRMC,140323.0,A,4721.594789,N,12218.573990,W,230.6,180.4,230209,,,A*7C
$GPGSA,A,3,02,04,05,12,255,,,,,,,,4.2,3.2,2.7*02
$GPVTG,180.4,T,,M,230.6,N,427.1,K*6A
$GPGSV,2,1,08,02,70,144,25,04,45,059,21,05,63,292,18,09,27,209,18*75
$GPGSV,2,2,08,12,73,292,16,17,05,077,25,29,12,262,,30,35,303,14*72
$GPGGA,140324.0,4721.530956,N,12218.571908,W,1,06,2.3,223.5,M,,,,*1A
$GPRMC,140324.0,A,4721.530956,N,12218.571908,W,229.8,179.8,230209,,,A*76
$GPGSA,A,3,02,04,09,12,255,255,,,,,,,2.8,2.3,1.6*32
$GPVTG,179.8,T,,M,229.8,N,425.6,K*63
$GPGSV,2,1,08,02,70,144,25,04,45,059,22,05,63,292,17,09,27,209,18*79
$GPGSV,2,2,08,12,73,292,16,17,05,077,24,29,12,262,,30,35,303,14*73
$GPGGA,140325.0,4721.466342,N,12218.570088,W,1,05,2.4,224.5,M,,,,*15
$GPRMC,140325.0,A,4721.466342,N,12218.570088,W,232.2,179.9,230209,,,A*7B
$GPGSA,A,3,02,04,05,09,255,,,,,,,,2.9,2.4,1.5*03
$GPVTG,179.9,T,,M,232.2,N,430.1,K*61
$GPGSV,2,1,08,02,70,144,21,04,45,059,22,05,63,292,16,09,27,209,18*7C
$GPGSV,2,2,08,12,73,292,14,17,05,077,23,29,12,262,,30,35,303,14*76
$GPGGA,140326.0,4721.402306,N,12218.571129,W,1,05,2.2,224.5,M,,,,*19
$GPRMC,140326.0,A,4721.402306,N,12218.571129,W,232.2,180.0,230209,,,A*7E
$GPGSA,A,3,02,05,12,255,255,,,,,,,,2.7,2.2,1.5*37
$GPVTG,180.0,T,,M,232.2,N,430.1,K*6E
$GPGSV,2,1,08,02,70,144,22,04,45,059,22,05,63,292,17,09,27,209,18*7E
$GPGSV,2,2,08,12,73,292,14,17,05,077,24,29,12,262,,30,35,303,14*71
$GPGSV,2,1,08,02,70,144,20,04,45,059,20,05,63,292,17,09,27,209,18*7E
$GPGSV,2,2,08,12,73,292,14,17,05,077,23,29,12,262,,30,35,303,14*76
$GPGGA,140328.0,4721.272720,N,12218.572155,W,1,05,3.0,224.0,M,,,,*18
$GPRMC,140328.0,A,4721.272720,N,12218.572155,W,233.7,180.2,230209,,,A*7F
$GPGSA,A,3,02,04,255,255,255,,,,,,,,3.8,3.0,2.4*08
$GPVTG,180.2,T,,M,233.7,N,432.8,K*63
$GPGSV,3,1,09,02,70,144,22,04,45,059,20,05,63,292,16,09,27,209,18*7D
$GPGSV,3,2,09,12,73,292,14,17,05,077,24,24,04,209,,29,12,262,*78
$GPGSV,3,3,09,30,35,303,14*40
$GPGGA,140329.0,4721.207924,N,12218.572914,W,1,05,2.9,223.5,M,,,,*16
$GPRMC,140329.0,A,4721.207924,N,12218.572914,W,234.0,180.1,230209,,,A*78
$GPGSA,A,3,02,05,255,255,255,,,,,,,,4.0,2.9,2.7*0D
$GPVTG,180.1,T,,M,234.0,N,433.3,K*6A
$GPGSV,3,1,09,02,70,144,24,04,45,059,20,05,63,292,16,09,27,209,18*7B
$GPGSV,3,2,09,12,73,292,14,17,05,077,25,24,04,209,,29,12,262,*79
$GPGSV,3,3,09,30,35,303,14*40
$GPGSV,3,1,09,02,70,144,25,04,45,059,20,05,63,292,16,09,27,209,18*7A
$GPGSV,3,2,09,12,73,292,14,17,05,077,26,24,04,209,,29,12,262,*7A
$GPGSV,3,3,09,30,35,303,14*40
$GPGGA,140331.0,4721.077997,N,12218.573331,W,1,05,3.0,223.0,M,,,,*13
$GPRMC,140331.0,A,4721.077997,N,12218.573331,W,233.9,180.1,230209,,,A*7E
$GPGSA,A,3,02,255,255,255,255,,,,,,,,3.2,3.0,1.0*33
$GPVTG,180.1,T,,M,233.9,N,433.3,K*64
$GPGSV,3,1,09,02,70,144,24,04,45,059,20,05,63,292,16,09,27,209,18*7B
$GPGSV,3,2,09,12,73,292,14,17,05,077,26,24,04,209,,29,12,262,*7A
$GPGSV,3,3,09,30,35,303,14*40
$GPGGA,140332.0,4721.013108,N,12218.573512,W,1,04,25.5,222.5,M,,,,*2F
$GPRMC,140332.0,A,4721.013108,N,12218.573512,W,233.9,180.1,230209,,,A*76
$GPGSA,A,3,02,255,255,255,,,,,,,,,25.5,25.5,25.5*30
$GPVTG,180.1,T,,M,233.9,N,433.2,K*65
$GPGSV,3,1,09,02,70,144,23,04,45,059,20,05,63,292,14,09,27,209,18*7E
$GPGSV,3,2,09,12,73,292,14,17,05,077,30,24,04,209,,29,12,262,*7D
$GPGSV,3,3,09,30,35,303,14*40
$GPGGA,140333.0,4720.948001,N,12218.573065,W,1,03,3.0,222.0,M,,,,*16
$GPRMC,140333.0,A,4720.948001,N,12218.573065,W,234.3,179.9,230209,,,A*7F
$GPGSA,A,3,02,05,255,,,,,,,,,,3.2,3.0,1.0*04
$GPVTG,179.9,T,,M,234.3,N,434.0,K*63
$GPGSV,3,1,09,02,70,144,25,04,45,059,21,05,63,292,14,09,27,209,18*79
$GPGSV,3,2,09,12,73,292,14,17,05,077,31,24,04,209,,29,12,262,*7C
$GPGSV,3,3,09,30,35,303,14*40
$GPGGA,140334.0,4720.880102,N,12218.575771,W,1,03,2.9,221.5,M,,,,*1C
$GPRMC,140334.0,A,4720.880102,N,12218.575771,W,236.8,180.3,230209,,,A*7E
$GPGSA,A,3,02,04,255,,,,,,,,,,4.0,2.9,2.7*0C
$GPVTG,180.3,T,,M,236.8,N,438.6,K*6C
$GPGSV,3,1,09,02,70,144,26,04,45,059,29,05,63,292,14,09,27,209,18*72
$GPGSV,3,2,09,12,73,292,14,17,05,077,31,24,04,209,,29,12,262,14*79
$GPGSV,3,3,09,30,35,303,14*40
$GPGGA,140335.0,4720.812227,N,12218.578672,W,1,03,2.9,221.0,M,,,,*18
$GPRMC,140335.0,A,4720.812227,N,12218.578672,W,237.4,180.3,230209,,,A*72
$GPGSA,A,3,02,04,255,,,,,,,,,,4.0,2.9,2.7*0C
$GPVTG,180.3,T,,M,237.4,N,439.6,K*60
$GPGSV,3,1,09,02,70,144,26,04,45,059,31,05,63,292,14,09,27,209,18*7B
$GPGSV,3,2,09,12,73,292,13,17,05,077,33,24,04,209,,29,12,262,14*7C
$GPGSV,3,3,09,30,35,303,14*40
$GPGSV,3,1,09,02,70,144,27,04,45,059,32,05,63,292,14,09,27,209,18*79
$GPGSV,3,2,09,12,73,292,13,17,05,077,33,24,04,209,,29,12,262,14*7C
$GPGSV,3,3,09,30,35,303,14*40
$GPGGA,140337.0,4720.673910,N,12218.573040,W,1,04,3.4,220.5,M,,,,*1F
$GPRMC,140337.0,A,4720.673910,N,12218.573040,W,238.2,178.8,230209,,,A*7F
$GPGSA,A,3,02,04,255,255,,,,,,,,,4.6,3.4,3.1*33
$GPVTG,178.8,T,,M,238.2,N,441.1,K*6D
$GPGSV,3,1,09,02,70,144,25,04,45,059,31,05,63,292,14,09,27,209,18*78
$GPGSV,3,2,09,12,73,292,13,17,05,077,33,24,04,209,,29,12,262,14*7C
$GPGSV,3,3,09,30,35,303,14*40
$GPGGA,140338.0,4720.608192,N,12218.570731,W,1,04,3.4,220.0,M,,,,*19
$GPRMC,140338.0,A,4720.608192,N,12218.570731,W,235.9,178.3,230209,,,A*71
$GPGSA,A,3,02,04,255,255,,,,,,,,,4.6,3.4,3.1*33
$GPVTG,178.3,T,,M,235.9,N,437.0,K*60
$GPGSV,3,1,09,02,70,144,26,04,45,059,31,05,63,292,14,09,27,209,18*7B
$GPGSV,3,2,09,12,73,292,13,17,05,077,33,24,04,209,,29,12,262,14*7C
$GPGSV,3,3,09,30,35,303,14*40
$GPGSV,3,1,09,02,70,144,25,04,45,059,31,05,63,292,14,09,27,209,18*78
$GPGSV,3,2,09,12,73,292,13,17,05,077,34,24,04,209,,29,12,262,15*7A
$GPGSV,3,3,09,30,35,303,14*40
$GPGGA,140340.0,4720.479637,N,12218.562182,W,1,03,3.4,219.5,M,,,,*1F
$GPRMC,140340.0,A,4720.479637,N,12218.562182,W,230.0,176.9,230209,,,A*77
$GPGSA,A,3,02,04,255,,,,,,,,,,4.6,3.4,3.1*01
$GPVTG,176.9,T,,M,230.0,N,426.0,K*68
$GPGSV,3,1,09,02,70,144,26,04,45,059,31,05,63,292,14,09,27,209,18*7B
$GPGSV,3,2,09,12,73,292,12,17,05,077,35,24,04,209,,29,12,262,15*7A
$GPGSV,3,3,09,30,35,303,15*41
$GPGGA,140341.0,4720.407584,N,12218.532449,W,1,03,3.4,219.0,M,,,,*1E
$GPRMC,140341.0,A,4720.407584,N,12218.532449,W,233.2,173.8,230209,,,A*76
$GPGSA,A,3,02,04,12,,,,,,,,,,4.6,3.4,3.1*30
$GPVTG,173.8,T,,M,233.2,N,431.8,K*63
$GPGSV,3,1,09,02,70,144,26,04,45,059,30,05,63,292,14,09,27,209,18*7A
$GPGSV,3,2,09,12,73,292,12,17,05,077,35,24,04,209,,29,12,262,15*7A
$GPGSV,3,3,09,30,35,303,15*41
$GPGGA,,,,,,0,,,,,,,,*66
$GPRMC,,V,,,,,,,,,,N*53
$GPGSA,A,1,,,,,,,,,,,,,,,,*32
$GPVTG,,T,,M,,N,,K*4E
$GPGSV,3,1,09,02,70,144,24,04,45,059,31,05,63,292,14,09,27,209,18*79
$GPGSV,3,2,09,12,73,292,12,17,05,077,35,24,04,209,,29,12,262,15*7A
$GPGSV,3,3,09,30,35,303,15*41
$GPGGA,140343.0,4720.273281,N,12218.482198,W,1,04,4.7,218.5,M,,,,*1F
$GPRMC,140343.0,A,4720.273281,N,12218.482198,W,233.1,170.0,230209,,,A*78
$GPGSA,A,3,02,04,255,30,,,,,,,,,5.5,4.7,2.9*0D
$GPVTG,170.0,T,,M,233.1,N,431.7,K*64
$GPGSV,3,1,09,02,70,144,21,04,45,059,33,05,63,292,14,09,27,209,18*7E
$GPGSV,3,2,09,12,73,292,12,17,05,077,35,24,04,209,,29,12,262,*7E
$GPGSV,3,3,09,30,35,303,15*41
$GPGGA,140344.0,4720.212428,N,12218.462479,W,1,04,5.3,218.0,M,,,,*1E
$GPRMC,140344.0,A,4720.212428,N,12218.462479,W,229.4,168.9,230209,,,A*77
$GPGSA,A,3,02,04,255,255,,,,,,,,,6.1,5.3,3.0*36
$GPVTG,168.9,T,,M,229.4,N,424.8,K*61
$GPGSV,3,1,09,02,70,144,23,04,45,059,35,05,63,292,14,09,27,209,*73
$GPGSV,3,2,09,12,73,292,12,17,05,077,36,24,04,209,,29,12,262,*7D
$GPGSV,3,3,09,30,35,303,20*47
$GPGGA,140345.0,4720.153620,N,12218.440637,W,1,04,3.4,217.5,M,,,,*10
$GPRMC,140345.0,A,4720.153620,N,12218.440637,W,225.4,167.7,230209,,,A*7F
$GPGSA,A,3,02,04,255,255,,,,,,,,,4.6,3.4,3.1*33
$GPVTG,167.7,T,,M,225.4,N,417.4,K*60
$GPGSV,3,1,09,02,70,144,24,04,45,059,35,05,63,292,14,09,27,209,*74
$GPGSV,3,2,09,12,73,292,12,17,05,077,36,24,04,209,,29,12,262,*7D
$GPGSV,3,3,09,30,35,303,19*4D
$GPGGA,140346.0,4720.088194,N,12218.398644,W,1,04,5.0,217.5,M,,,,*18
$GPRMC,140346.0,A,4720.088194,N,12218.398644,W,223.4,165.8,230209,,,A*7E
$GPGSA,A,3,02,04,255,30,,,,,,,,,5.7,5.0,2.7*07
$GPVTG,165.8,T,,M,223.4,N,413.7,K*6C
$GPGSV,3,1,09,02,70,144,25,04,45,059,35,05,63,292,14,09,27,209,15*71
$GPGSV,3,2,09,12,73,292,12,17,05,077,35,24,04,209,,29,12,262,*7E
$GPGSV,3,3,09,30,35,303,19*4D
$GPGGA,140347.0,4720.031950,N,12218.372452,W,1,04,2.5,217.5,M,,,,*18
$GPRMC,140347.0,A,4720.031950,N,12218.372452,W,219.2,164.5,230209,,,A*7F
$GPGSA,A,3,02,04,255,255,,,,,,,,,3.4,2.5,2.2*34
$GPVTG,164.5,T,,M,219.2,N,406.0,K*6C
$GPGSV,3,1,09,02,70,144,24,04,45,059,36,05,63,292,14,09,27,209,15*73
$GPGSV,3,2,09,12,73,292,12,17,05,077,35,24,04,209,,29,12,262,*7E
$GPGSV,3,3,09,30,35,303,17*43
$GPGGA,140348.0,4719.970180,N,12218.326375,W,1,03,2.5,217.5,M,,,,*10
$GPRMC,140348.0,A,4719.970180,N,12218.326375,W,217.2,162.4,230209,,,A*79
$GPGSA,A,3,02,04,255,,,,,,,,,,3.4,2.5,2.2*06
$GPVTG,162.4,T,,M,217.2,N,402.2,K*63
$GPGSV,3,1,09,02,70,144,24,04,45,059,35,05,63,292,14,09,27,209,16*73
$GPGSV,3,2,09,12,73,292,12,17,05,077,35,24,04,209,,29,12,262,*7E
$GPGSV,3,3,09,30,35,303,17*43
$GPGGA,140349.0,4719.916924,N,12218.295361,W,1,03,2.5,217.0,M,,,,*1E
$GPRMC,140349.0,A,4719.916924,N,12218.295361,W,213.9,160.9,230209,,,A*72
$GPGSA,A,3,04,255,255,,,,,,,,,,3.4,2.5,2.2*36
$GPVTG,160.9,T,,M,213.9,N,396.2,K*69
$GPGSV,3,1,09,02,69,146,21,04,45,060,36,05,62,293,14,09,28,209,17*7B
$GPGSV,3,2,09,12,73,293,12,17,43,181,35,24,03,209,,29,11,262,16*76
$GPGSV,3,3,09,30,35,303,17*43
$GPGGA,140350.0,4719.866074,N,12218.262038,W,1,03,2.5,217.0,M,,,,*1B
$GPRMC,140350.0,A,4719.866074,N,12218.262038,W,208.9,159.1,230209,,,A*7F
$GPGSA,A,3,02,04,255,,,,,,,,,,3.4,2.5,2.2*06
$GPVTG,159.1,T,,M,208.9,N,386.8,K*6A
$GPGSV,3,1,09,02,69,146,23,04,45,060,37,05,62,293,,09,28,209,17*7D
$GPGSV,3,2,09,12,73,293,12,17,43,181,33,24,03,209,,29,11,262,16*70
$GPGSV,3,3,09,30,35,303,17*43
$GPGSV,3,1,09,02,70,144,23,04,45,059,37,05,63,292,,09,27,209,17*72
$GPGSV,3,2,09,12,73,292,12,17,05,077,32,24,04,209,,29,12,262,16*7E
$GPGSV,3,3,09,30,35,303,17*43
$GPGGA,140352.0,4719.770435,N,12218.189608,W,1,03,4.6,216.5,M,,,,*12
$GPRMC,140352.0,A,4719.770435,N,12218.189608,W,200.2,155.3,230209,,,A*7A
$GPGSA,A,3,02,04,255,,,,,,,,,,4.7,4.6,0.9*0E
$GPVTG,155.3,T,,M,200.2,N,370.8,K*6E
$GPGSV,3,1,09,02,70,144,20,04,45,059,36,05,63,292,,09,27,209,*76
$GPGSV,3,2,09,12,73,292,12,17,05,077,33,24,04,209,,29,12,262,16*7F
$GPGSV,3,3,09,30,35,303,17*43
$GPGGA,140353.0,4719.725713,N,12218.150310,W,1,03,4.6,216.0,M,,,,*19
$GPRMC,140353.0,A,4719.725713,N,12218.150310,W,196.2,153.0,230209,,,A*7D
$GPGSA,A,3,02,04,255,,,,,,,,,,4.7,4.6,0.9*0E
$GPVTG,153.0,T,,M,196.2,N,363.4,K*69
$GPGSV,3,1,09,02,70,144,20,04,45,059,37,05,63,292,,09,27,209,*77
$GPGSV,3,2,09,12,73,292,12,17,05,077,32,24,04,209,,29,12,262,*79
$GPGSV,3,3,09,30,35,303,15*41
$GPGSV,3,1,09,02,70,143,20,04,45,059,36,05,63,292,,09,27,209,*71
$GPGSV,3,2,09,12,74,292,12,17,05,077,31,24,04,209,,29,12,262,*7D
$GPGSV,3,3,09,30,35,303,15*41
$GPGGA,140355.0,4719.626513,N,12218.045176,W,1,03,2.5,215.5,M,,,,*1B
$GPRMC,140355.0,A,4719.626513,N,12218.045176,W,196.9,149.4,230209,,,A*78
$GPGSA,A,3,04,255,255,,,,,,,,,,3.4,2.5,2.2*36
$GPVTG,149.4,T,,M,196.9,N,364.6,K*68
